{
"type": "FeatureCollection",
"name": "towns_pnt",
"crs": { "type": "name", "properties": { "name": "urn:ogc:def:crs:OGC:1.3:CRS84" } },
"features": [
{ "type": "Feature", "properties": { "town": "1220", "name_heb": "אבירים", "name_eng": "Abbirim", "area_km2": 0.86723570177221299, "pop_2015": 194 }, "geometry": { "type": "Point", "coordinates": [ 35.28820173790907, 33.040053461584478 ] } },
{ "type": "Feature", "properties": { "town": "472", "name_heb": "אבו גוש", "name_eng": "Abu Ghosh", "area_km2": 2.0085287002319951, "pop_2015": 6978 }, "geometry": { "type": "Point", "coordinates": [ 35.107728851891252, 31.806939315986611 ] } },
{ "type": "Feature", "properties": { "town": "1342", "name_heb": "אבו קורינאת (יישוב)", "name_eng": "Abu Qureinat", "area_km2": 7.3933514529802498, "pop_2015": 1218 }, "geometry": { "type": "Point", "coordinates": [ 34.963023031458732, 31.140465729836439 ] } },
{ "type": "Feature", "properties": { "town": "473", "name_heb": "אבו סנאן", "name_eng": "Abu Sinan", "area_km2": 6.6628760818876023, "pop_2015": 13358 }, "geometry": { "type": "Point", "coordinates": [ 35.161475260468194, 32.963969266046348 ] } },
{ "type": "Feature", "properties": { "town": "1068", "name_heb": "אדמית", "name_eng": "Adamit", "area_km2": 10.459681916081786, "pop_2015": 175 }, "geometry": { "type": "Point", "coordinates": [ 35.21643679514262, 33.083866727277531 ] } },
{ "type": "Feature", "properties": { "town": "2035", "name_heb": "עדנים", "name_eng": "Adanim", "area_km2": 44.714193887468141, "pop_2015": 479 }, "geometry": { "type": "Point", "coordinates": [ 34.942684178834632, 32.106537304878408 ] } },
{ "type": "Feature", "properties": { "town": "1123", "name_heb": "אדרת", "name_eng": "Adderet", "area_km2": 0.085276185294385992, "pop_2015": 869 }, "geometry": { "type": "Point", "coordinates": [ 34.994654780336681, 31.660914242625147 ] } },
{ "type": "Feature", "properties": { "town": "113", "name_heb": "אדירים", "name_eng": "Addirim", "area_km2": 3.2165548499802443, "pop_2015": 267 }, "geometry": { "type": "Point", "coordinates": [ 35.274925203406305, 32.552912637088276 ] } },
{ "type": "Feature", "properties": { "town": "1199", "name_heb": "עדי", "name_eng": "Adi", "area_km2": 0.19204393353010712, "pop_2015": 1860 }, "geometry": { "type": "Point", "coordinates": [ 35.169665788619881, 32.78456997778683 ] } },
{ "type": "Feature", "properties": { "town": "3759", "name_heb": "אדורה", "name_eng": "Adora", "area_km2": 0.12008991154140233, "pop_2015": 404 }, "geometry": { "type": "Point", "coordinates": [ 35.01599094693939, 31.550607220335497 ] } },
{ "type": "Feature", "properties": { "town": "313", "name_heb": "אפק", "name_eng": "Afeq", "area_km2": 9.9573939298324881, "pop_2015": 562 }, "geometry": { "type": "Point", "coordinates": [ 35.130257403485935, 32.838574255112732 ] } },
{ "type": "Feature", "properties": { "town": "4301", "name_heb": "אפיק", "name_eng": "Afiq", "area_km2": 1.6377201411264537, "pop_2015": 277 }, "geometry": { "type": "Point", "coordinates": [ 35.703878565845642, 32.776672356957341 ] } },
{ "type": "Feature", "properties": { "town": "176", "name_heb": "אפיקים", "name_eng": "Afiqim", "area_km2": 1.2790554010994433, "pop_2015": 1474 }, "geometry": { "type": "Point", "coordinates": [ 35.578337677291657, 32.677489460464926 ] } },
{ "type": "Feature", "properties": { "town": "7700", "name_heb": "עפולה", "name_eng": "Afula", "area_km2": 29.074711085126943, "pop_2015": 44930 }, "geometry": { "type": "Point", "coordinates": [ 35.306570372985618, 32.612021477442056 ] } },
{ "type": "Feature", "properties": { "town": "794", "name_heb": "עגור", "name_eng": "Agur", "area_km2": 0.33259637066510317, "pop_2015": 521 }, "geometry": { "type": "Point", "coordinates": [ 34.911376545257546, 31.697351404414555 ] } },
{ "type": "Feature", "properties": { "town": "1157", "name_heb": "אחווה", "name_eng": "Ahawa", "area_km2": 0.042090519750356672, "pop_2015": 235 }, "geometry": { "type": "Point", "coordinates": [ 34.767601924924385, 31.743866550024638 ] } },
{ "type": "Feature", "properties": { "town": "797", "name_heb": "אחיעזר", "name_eng": "Ahi'ezer", "area_km2": 2.659445627724208, "pop_2015": 1751 }, "geometry": { "type": "Point", "coordinates": [ 34.873299185009458, 31.979111407931434 ] } },
{ "type": "Feature", "properties": { "town": "785", "name_heb": "אחיהוד", "name_eng": "Ahihud", "area_km2": 3.0961546391699386, "pop_2015": 822 }, "geometry": { "type": "Point", "coordinates": [ 35.180804885706252, 32.905396399663843 ] } },
{ "type": "Feature", "properties": { "town": "804", "name_heb": "אחיסמך", "name_eng": "Ahisamakh", "area_km2": 3.5024088785801379, "pop_2015": 1349 }, "geometry": { "type": "Point", "coordinates": [ 34.906511848465591, 31.93280764957942 ] } },
{ "type": "Feature", "properties": { "town": "850", "name_heb": "אחיטוב", "name_eng": "Ahituv", "area_km2": 3.2458350497709509, "pop_2015": 1062 }, "geometry": { "type": "Point", "coordinates": [ 34.989482921323798, 32.389681946892232 ] } },
{ "type": "Feature", "properties": { "town": "821", "name_heb": "אחוזם", "name_eng": "Ahuzzam", "area_km2": 3.8731050795636248, "pop_2015": 517 }, "geometry": { "type": "Point", "coordinates": [ 34.77797056956156, 31.550973598154741 ] } },
{ "type": "Feature", "properties": { "town": "1330", "name_heb": "אחוזת ברק", "name_eng": "Ahuzzat Baraq", "area_km2": 0.43908159779196976, "pop_2015": 2095 }, "geometry": { "type": "Point", "coordinates": [ 35.337667233714789, 32.642406897184436 ] } },
{ "type": "Feature", "properties": { "town": "7600", "name_heb": "עכו", "name_eng": "Akko", "area_km2": 13.535189522482849, "pop_2015": 47675 }, "geometry": { "type": "Point", "coordinates": [ 35.086913268500282, 32.922264711346259 ] } },
{ "type": "Feature", "properties": { "town": "1359", "name_heb": "אל סייד", "name_eng": "Al Sayyid", "area_km2": 12.891412894773818, "pop_2015": 3384 }, "geometry": { "type": "Point", "coordinates": [ 34.914423084280621, 31.284838983412168 ] } },
{ "type": "Feature", "properties": { "town": "1316", "name_heb": "אל -עריאן", "name_eng": "Al-aryan", "area_km2": 0.055717095284402371, "pop_2015": 178 }, "geometry": { "type": "Point", "coordinates": [ 35.125147167891342, 32.497944798132565 ] } },
{ "type": "Feature", "properties": { "town": "1339", "name_heb": "אל -עזי", "name_eng": "Al-azy", "area_km2": 1.2124179296505451, "pop_2015": 184 }, "geometry": { "type": "Point", "coordinates": [ 34.802201707210195, 31.717379135134404 ] } },
{ "type": "Feature", "properties": { "town": "3727", "name_heb": "עלי זהב", "name_eng": "Ale Zahav", "area_km2": 0.0044674811830818653, "pop_2015": 1300 }, "geometry": { "type": "Point", "coordinates": [ 35.066247561145907, 32.074562033148702 ] } },
{ "type": "Feature", "properties": { "town": "3750", "name_heb": "אלפי מנשה", "name_eng": "Alfe Menashe", "area_km2": 4.218231865251088, "pop_2015": 7638 }, "geometry": { "type": "Point", "coordinates": [ 35.007954979562093, 32.16732957002997 ] } },
{ "type": "Feature", "properties": { "town": "1182", "name_heb": "אלון הגליל", "name_eng": "Allon Hagalil", "area_km2": 0.12289819629380107, "pop_2015": 1003 }, "geometry": { "type": "Point", "coordinates": [ 35.220103711312611, 32.757169282554315 ] } },
{ "type": "Feature", "properties": { "town": "3604", "name_heb": "אלון שבות", "name_eng": "Allon Shevut", "area_km2": 0.20185325326943396, "pop_2015": 3218 }, "geometry": { "type": "Point", "coordinates": [ 35.125557922943102, 31.656459279881396 ] } },
{ "type": "Feature", "properties": { "town": "429", "name_heb": "אלוני אבא", "name_eng": "Allone Abba", "area_km2": 5.80017354532586, "pop_2015": 1000 }, "geometry": { "type": "Point", "coordinates": [ 35.17354608041655, 32.730214092172154 ] } },
{ "type": "Feature", "properties": { "town": "4017", "name_heb": "אלוני הבשן", "name_eng": "Allone Habashan", "area_km2": 20.162995505118545, "pop_2015": 368 }, "geometry": { "type": "Point", "coordinates": [ 35.842220489790698, 33.069719735612708 ] } },
{ "type": "Feature", "properties": { "town": "868", "name_heb": "אלוני יצחק", "name_eng": "Allone Yizhaq", "area_km2": 0.40645976475465295, "pop_2015": 294 }, "geometry": { "type": "Point", "coordinates": [ 35.003063827939044, 32.510372244700228 ] } },
{ "type": "Feature", "properties": { "town": "285", "name_heb": "אלונים", "name_eng": "Allonim", "area_km2": 7.6755219419745222, "pop_2015": 470 }, "geometry": { "type": "Point", "coordinates": [ 35.153652561382316, 32.718218164793505 ] } },
{ "type": "Feature", "properties": { "town": "688", "name_heb": "עלמה", "name_eng": "Alma", "area_km2": 19.256489304275171, "pop_2015": 679 }, "geometry": { "type": "Point", "coordinates": [ 35.511093256397203, 33.05444025751963 ] } },
{ "type": "Feature", "properties": { "town": "1125", "name_heb": "אלמגור", "name_eng": "Almagor", "area_km2": 2.8942627882595806, "pop_2015": 349 }, "geometry": { "type": "Point", "coordinates": [ 35.60935017408832, 32.91264817833919 ] } },
{ "type": "Feature", "properties": { "town": "3556", "name_heb": "אלמוג", "name_eng": "Almog", "area_km2": 0.1521084130487442, "pop_2015": 207 }, "geometry": { "type": "Point", "coordinates": [ 35.460481737279046, 31.789571014501007 ] } },
{ "type": "Feature", "properties": { "town": "3715", "name_heb": "עלמון", "name_eng": "Almon", "area_km2": 0.17492616275918482, "pop_2015": 1286 }, "geometry": { "type": "Point", "coordinates": [ 35.295404284128537, 31.829431299776086 ] } },
{ "type": "Feature", "properties": { "town": "1146", "name_heb": "עלומים", "name_eng": "Alumim", "area_km2": 5.9889972438344357, "pop_2015": 470 }, "geometry": { "type": "Point", "coordinates": [ 34.491400235223708, 31.451992111259539 ] } },
{ "type": "Feature", "properties": { "town": "1145", "name_heb": "אלומה", "name_eng": "Alumma", "area_km2": 0.0028217754625082013, "pop_2015": 502 }, "geometry": { "type": "Point", "coordinates": [ 34.745364607780282, 31.651816592602838 ] } },
{ "type": "Feature", "properties": { "town": "330", "name_heb": "אלומות", "name_eng": "Alummot", "area_km2": 8.1476954777693749, "pop_2015": 321 }, "geometry": { "type": "Point", "coordinates": [ 35.552499506504496, 32.696994056083625 ] } },
{ "type": "Feature", "properties": { "town": "23", "name_heb": "אמציה", "name_eng": "Amazya", "area_km2": 32.673709323396487, "pop_2015": 569 }, "geometry": { "type": "Point", "coordinates": [ 34.903280797506319, 31.541225016716076 ] } },
{ "type": "Feature", "properties": { "town": "319", "name_heb": "עמיר", "name_eng": "Amir", "area_km2": 3.7928623385525455, "pop_2015": 542 }, "geometry": { "type": "Point", "coordinates": [ 35.62150487117917, 33.169374864925373 ] } },
{ "type": "Feature", "properties": { "town": "1064", "name_heb": "אמירים", "name_eng": "Amirim", "area_km2": 1.9486102100516856, "pop_2015": 789 }, "geometry": { "type": "Point", "coordinates": [ 35.447743280086783, 32.936651269389344 ] } },
{ "type": "Feature", "properties": { "town": "385", "name_heb": "עמיעד", "name_eng": "Ammi'ad", "area_km2": 6.4499535614870078, "pop_2015": 421 }, "geometry": { "type": "Point", "coordinates": [ 35.542050779823327, 32.920956045973206 ] } },
{ "type": "Feature", "properties": { "town": "318", "name_heb": "עמיעוז", "name_eng": "Ammi'oz", "area_km2": 4.1269490469420553, "pop_2015": 196 }, "geometry": { "type": "Point", "coordinates": [ 34.411949831858401, 31.256892299980962 ] } },
{ "type": "Feature", "properties": { "town": "779", "name_heb": "עמינדב", "name_eng": "Amminadav", "area_km2": 0.050422444349527355, "pop_2015": 1083 }, "geometry": { "type": "Point", "coordinates": [ 35.140548442301345, 31.751568193845728 ] } },
{ "type": "Feature", "properties": { "town": "773", "name_heb": "עמיקם", "name_eng": "Ammiqam", "area_km2": 12.85701699097263, "pop_2015": 707 }, "geometry": { "type": "Point", "coordinates": [ 35.019127621065756, 32.568415430169203 ] } },
{ "type": "Feature", "properties": { "town": "1253", "name_heb": "אמנון", "name_eng": "Amnun", "area_km2": 2.399256863186237, "pop_2015": 289 }, "geometry": { "type": "Point", "coordinates": [ 35.573201843735632, 32.905652926826953 ] } },
{ "type": "Feature", "properties": { "town": "708", "name_heb": "עמקה", "name_eng": "Amqa", "area_km2": 5.3136042491599316, "pop_2015": 644 }, "geometry": { "type": "Point", "coordinates": [ 35.160259747540955, 32.978801350269464 ] } },
{ "type": "Feature", "properties": { "town": "1212", "name_heb": "עמוקה", "name_eng": "Amuqqa", "area_km2": 0.64435677714157102, "pop_2015": 125 }, "geometry": { "type": "Point", "coordinates": [ 35.524791954432999, 32.9954602801023 ] } },
{ "type": "Feature", "properties": { "town": "4012", "name_heb": "אניעם", "name_eng": "Ani'am", "area_km2": 54.994708165928181, "pop_2015": 503 }, "geometry": { "type": "Point", "coordinates": [ 35.758851950639546, 32.984076747227327 ] } },
{ "type": "Feature", "properties": { "town": "637", "name_heb": "ערערה", "name_eng": "Ar'ara", "area_km2": 9.2435759432381541, "pop_2015": 23996 }, "geometry": { "type": "Point", "coordinates": [ 35.092226560863921, 32.501630562877466 ] } },
{ "type": "Feature", "properties": { "town": "1192", "name_heb": "ערערה-בנגב", "name_eng": "Ar'ara-banegev", "area_km2": 14.081694168332278, "pop_2015": 15813 }, "geometry": { "type": "Point", "coordinates": [ 35.018512246542947, 31.155388451056474 ] } },
{ "type": "Feature", "properties": { "town": "1335", "name_heb": "ערב אל נעים", "name_eng": "Arab Al Naim", "area_km2": 0.11237418113219738, "pop_2015": 733 }, "geometry": { "type": "Point", "coordinates": [ 35.289497184933452, 32.888110594180965 ] } },
{ "type": "Feature", "properties": { "town": "2560", "name_heb": "ערד", "name_eng": "Arad", "area_km2": 93.154965174898621, "pop_2015": 24436 }, "geometry": { "type": "Point", "coordinates": [ 35.180151325433393, 31.247265003321473 ] } },
{ "type": "Feature", "properties": { "town": "1246", "name_heb": "עראמשה*", "name_eng": "Aramsha", "area_km2": 0.49781375443947312, "pop_2015": 1604 }, "geometry": { "type": "Point", "coordinates": [ 35.220859130432721, 33.096223073683191 ] } },
{ "type": "Feature", "properties": { "town": "701", "name_heb": "ארבל", "name_eng": "Arbel", "area_km2": 11.377413131358326, "pop_2015": 673 }, "geometry": { "type": "Point", "coordinates": [ 35.485266876842509, 32.792390934269122 ] } },
{ "type": "Feature", "properties": { "town": "3598", "name_heb": "ארגמן", "name_eng": "Argaman", "area_km2": 0.18400215083068608, "pop_2015": 133 }, "geometry": { "type": "Point", "coordinates": [ 35.523787709112646, 32.171770341354161 ] } },
{ "type": "Feature", "properties": { "town": "3570", "name_heb": "אריאל", "name_eng": "Ari'el", "area_km2": 15.459942986659119, "pop_2015": 18717 }, "geometry": { "type": "Point", "coordinates": [ 35.15946979164714, 32.095455647545414 ] } },
{ "type": "Feature", "properties": { "town": "531", "name_heb": "עראבה", "name_eng": "Arrabe", "area_km2": 8.101927147042483, "pop_2015": 24072 }, "geometry": { "type": "Point", "coordinates": [ 35.338867094013153, 32.853708506740787 ] } },
{ "type": "Feature", "properties": { "town": "1324", "name_heb": "ארסוף", "name_eng": "Arsuf", "area_km2": 0.18307152239400148, "pop_2015": 154 }, "geometry": { "type": "Point", "coordinates": [ 34.815493780740489, 32.213928910650637 ] } },
{ "type": "Feature", "properties": { "town": "593", "name_heb": "ערוגות", "name_eng": "Arugot", "area_km2": 5.1544089032862184, "pop_2015": 1124 }, "geometry": { "type": "Point", "coordinates": [ 34.764012713076603, 31.730698961738213 ] } },
{ "type": "Feature", "properties": { "town": "591", "name_heb": "עשרת", "name_eng": "Aseret", "area_km2": 0.5178196424906254, "pop_2015": 970 }, "geometry": { "type": "Point", "coordinates": [ 34.747226155486061, 31.824636877264563 ] } },
{ "type": "Feature", "properties": { "town": "3754", "name_heb": "אספר", "name_eng": "Asfar", "area_km2": 0.065069843208611006, "pop_2015": 583 }, "geometry": { "type": "Point", "coordinates": [ 35.185375061594883, 31.585164616950859 ] } },
{ "type": "Feature", "properties": { "town": "1152", "name_heb": "אשלים", "name_eng": "Ashalim", "area_km2": 17.430914652281732, "pop_2015": 449 }, "geometry": { "type": "Point", "coordinates": [ 34.699530770193121, 30.972566661509575 ] } },
{ "type": "Feature", "properties": { "town": "70", "name_heb": "אשדוד", "name_eng": "Ashdod", "area_km2": 51.146291463887358, "pop_2015": 220174 }, "geometry": { "type": "Point", "coordinates": [ 34.657137634711589, 31.808941115015969 ] } },
{ "type": "Feature", "properties": { "town": "199", "name_heb": "אשדות יעקב (איחוד)", "name_eng": "Ashdot Ya'aqov(ihud)", "area_km2": 4.408095816446699, "pop_2015": 922 }, "geometry": { "type": "Point", "coordinates": [ 35.579964353650112, 32.653068394297811 ] } },
{ "type": "Feature", "properties": { "town": "188", "name_heb": "אשדות יעקב (מאוחד)", "name_eng": "Ashdot Ya'aqov(me'uhad)", "area_km2": 4.8588178608491868, "pop_2015": 506 }, "geometry": { "type": "Point", "coordinates": [ 35.586671055393701, 32.663631076497147 ] } },
{ "type": "Feature", "properties": { "town": "1256", "name_heb": "אשרת", "name_eng": "Asherat", "area_km2": 0.13443252494335173, "pop_2015": 512 }, "geometry": { "type": "Point", "coordinates": [ 35.155618993784422, 32.971176860952191 ] } },
{ "type": "Feature", "properties": { "town": "7100", "name_heb": "אשקלון", "name_eng": "Ashqelon", "area_km2": 47.727984109183232, "pop_2015": 130660 }, "geometry": { "type": "Point", "coordinates": [ 34.572830124390286, 31.66623349152049 ] } },
{ "type": "Feature", "properties": { "town": "3658", "name_heb": "עטרת", "name_eng": "Ateret", "area_km2": 0.0012656978301666677, "pop_2015": 894 }, "geometry": { "type": "Point", "coordinates": [ 35.176408739184453, 32.000713601359145 ] } },
{ "type": "Feature", "properties": { "town": "53", "name_heb": "עתלית", "name_eng": "Atlit", "area_km2": 9.627796493488308, "pop_2015": 6818 }, "geometry": { "type": "Point", "coordinates": [ 34.944608017209653, 32.699843717490474 ] } },
{ "type": "Feature", "properties": { "town": "892", "name_heb": "עבדון", "name_eng": "Avdon", "area_km2": 5.0336132152226565, "pop_2015": 615 }, "geometry": { "type": "Point", "coordinates": [ 35.185580075868764, 33.051682572367866 ] } },
{ "type": "Feature", "properties": { "town": "3786", "name_heb": "אבנת", "name_eng": "Avenat", "area_km2": 0.10140549917173385, "pop_2015": 128 }, "geometry": { "type": "Point", "coordinates": [ 35.43754517157226, 31.678757417590834 ] } },
{ "type": "Feature", "properties": { "town": "679", "name_heb": "אביאל", "name_eng": "Avi'el", "area_km2": 5.0034037979508037, "pop_2015": 817 }, "geometry": { "type": "Point", "coordinates": [ 34.995934520719331, 32.539467271361978 ] } },
{ "type": "Feature", "properties": { "town": "1070", "name_heb": "אביעזר", "name_eng": "Avi'ezer", "area_km2": 0.064974554786562916, "pop_2015": 847 }, "geometry": { "type": "Point", "coordinates": [ 35.018447705707189, 31.681635938778804 ] } },
{ "type": "Feature", "properties": { "town": "819", "name_heb": "אביגדור", "name_eng": "Avigedor", "area_km2": 3.5044645558148546, "pop_2015": 763 }, "geometry": { "type": "Point", "coordinates": [ 34.741889751413922, 31.707982865352829 ] } },
{ "type": "Feature", "properties": { "town": "175", "name_heb": "אביחיל", "name_eng": "Avihayil", "area_km2": 2.8139228061294257, "pop_2015": 1395 }, "geometry": { "type": "Point", "coordinates": [ 34.899822702574774, 32.348901185735848 ] } },
{ "type": "Feature", "properties": { "town": "2052", "name_heb": "אביטל", "name_eng": "Avital", "area_km2": 3.3123958690957576, "pop_2015": 499 }, "geometry": { "type": "Point", "coordinates": [ 35.302191175781537, 32.556706496539896 ] } },
{ "type": "Feature", "properties": { "town": "1115", "name_heb": "אביבים", "name_eng": "Avivim", "area_km2": 6.6960306396274563, "pop_2015": 496 }, "geometry": { "type": "Point", "coordinates": [ 35.472714358591674, 33.086205344645784 ] } },
{ "type": "Feature", "properties": { "town": "4011", "name_heb": "אבני איתן", "name_eng": "Avne Etan", "area_km2": 17.3389640490762, "pop_2015": 633 }, "geometry": { "type": "Point", "coordinates": [ 35.772691505093277, 32.808862950506416 ] } },
{ "type": "Feature", "properties": { "town": "3793", "name_heb": "אבני חפץ", "name_eng": "Avne Hefez", "area_km2": 0.18102713634836673, "pop_2015": 1709 }, "geometry": { "type": "Point", "coordinates": [ 35.077564856901574, 32.285596507008961 ] } },
{ "type": "Feature", "properties": { "town": "1311", "name_heb": "אבשלום", "name_eng": "Avshalom", "area_km2": 0.12049504016423225, "pop_2015": 258 }, "geometry": { "type": "Point", "coordinates": [ 34.33247186190632, 31.194251656763964 ] } },
{ "type": "Feature", "properties": { "town": "1275", "name_heb": "אבטליון", "name_eng": "Avtalyon", "area_km2": 6.8297223377561265, "pop_2015": 381 }, "geometry": { "type": "Point", "coordinates": [ 35.347037860375764, 32.834299030307584 ] } },
{ "type": "Feature", "properties": { "town": "156", "name_heb": "עיינות", "name_eng": "Ayanot", "area_km2": 1.2187788783378004, "pop_2015": 340 }, "geometry": { "type": "Point", "coordinates": [ 34.760338760392642, 31.916394496666271 ] } },
{ "type": "Feature", "properties": { "town": "77", "name_heb": "איילת השחר", "name_eng": "Ayyelet Hashahar", "area_km2": 7.2548358933612107, "pop_2015": 1470 }, "geometry": { "type": "Point", "coordinates": [ 35.589009838158965, 33.027271448681589 ] } },
{ "type": "Feature", "properties": { "town": "711", "name_heb": "עזריה", "name_eng": "Azarya", "area_km2": 3.8859427217655749, "pop_2015": 1193 }, "geometry": { "type": "Point", "coordinates": [ 34.907178646943564, 31.887369987076678 ] } },
{ "type": "Feature", "properties": { "town": "565", "name_heb": "אזור", "name_eng": "Azor", "area_km2": 2.2627208568297625, "pop_2015": 12227 }, "geometry": { "type": "Point", "coordinates": [ 34.808919796339424, 32.022352036048275 ] } },
{ "type": "Feature", "properties": { "town": "837", "name_heb": "עזריאל", "name_eng": "Azri'el", "area_km2": 2.0355660614998041, "pop_2015": 859 }, "geometry": { "type": "Point", "coordinates": [ 34.971722075783866, 32.264503744611908 ] } },
{ "type": "Feature", "properties": { "town": "817", "name_heb": "עזריקם", "name_eng": "Azriqam", "area_km2": 4.702794980576634, "pop_2015": 1377 }, "geometry": { "type": "Point", "coordinates": [ 34.70111450578522, 31.749458711159495 ] } },
{ "type": "Feature", "properties": { "town": "2043", "name_heb": "בחן", "name_eng": "Bahan", "area_km2": 4.0960306576154561, "pop_2015": 931 }, "geometry": { "type": "Point", "coordinates": [ 35.015164395394706, 32.352340621533564 ] } },
{ "type": "Feature", "properties": { "town": "94", "name_heb": "בלפוריה", "name_eng": "Balfurya", "area_km2": 7.4768794980801641, "pop_2015": 435 }, "geometry": { "type": "Point", "coordinates": [ 35.286721825354114, 32.631833959610127 ] } },
{ "type": "Feature", "properties": { "town": "6000", "name_heb": "באקה-ג'ת*", "name_eng": "Baqa -jatt", "area_km2": 16.07057425263126, "pop_2015": 28125 }, "geometry": { "type": "Point", "coordinates": [ 35.03571874144567, 32.412650978505873 ] } },
{ "type": "Feature", "properties": { "town": "823", "name_heb": "בר גיורא", "name_eng": "Bar Giyyora", "area_km2": 0.17388787814581394, "pop_2015": 641 }, "geometry": { "type": "Point", "coordinates": [ 35.072500764014748, 31.72973850409382 ] } },
{ "type": "Feature", "properties": { "town": "1191", "name_heb": "בר יוחאי", "name_eng": "Bar Yohay", "area_km2": 0.3587997144335508, "pop_2015": 921 }, "geometry": { "type": "Point", "coordinates": [ 35.440667754374175, 32.996121288820071 ] } },
{ "type": "Feature", "properties": { "town": "667", "name_heb": "ברעם", "name_eng": "Bar'am", "area_km2": 13.403317719738721, "pop_2015": 590 }, "geometry": { "type": "Point", "coordinates": [ 35.438060958025417, 33.055072228011113 ] } },
{ "type": "Feature", "properties": { "town": "141", "name_heb": "ברק", "name_eng": "Baraq", "area_km2": 3.178293829147754, "pop_2015": 422 }, "geometry": { "type": "Point", "coordinates": [ 35.272596072084717, 32.54082490890265 ] } },
{ "type": "Feature", "properties": { "town": "2038", "name_heb": "ברקת", "name_eng": "Bareqet", "area_km2": 3.0921013345321264, "pop_2015": 1867 }, "geometry": { "type": "Point", "coordinates": [ 34.947700359440184, 32.016054370477399 ] } },
{ "type": "Feature", "properties": { "town": "3654", "name_heb": "ברקן", "name_eng": "Barqan", "area_km2": 0.011019122621813789, "pop_2015": 1741 }, "geometry": { "type": "Point", "coordinates": [ 35.107456920272526, 32.10982197334976 ] } },
{ "type": "Feature", "properties": { "town": "617", "name_heb": "ברקאי", "name_eng": "Barqay", "area_km2": 7.5306450361895036, "pop_2015": 525 }, "geometry": { "type": "Point", "coordinates": [ 35.039118141606373, 32.485610094297002 ] } },
{ "type": "Feature", "properties": { "town": "1326", "name_heb": "בסמה", "name_eng": "Basma", "area_km2": 4.0368482364839648, "pop_2015": 8914 }, "geometry": { "type": "Point", "coordinates": [ 35.101298852595917, 32.517299521470477 ] } },
{ "type": "Feature", "properties": { "town": "944", "name_heb": "בסמת טבעון", "name_eng": "Basmat Tab'un", "area_km2": 3.6439629626212118, "pop_2015": 7507 }, "geometry": { "type": "Point", "coordinates": [ 35.148270594872201, 32.741584215907828 ] } },
{ "type": "Feature", "properties": { "town": "3794", "name_heb": "בת עין", "name_eng": "Bat Ayin", "area_km2": 0.14990325931966303, "pop_2015": 1226 }, "geometry": { "type": "Point", "coordinates": [ 35.103957746382271, 31.656730469139923 ] } },
{ "type": "Feature", "properties": { "town": "1323", "name_heb": "בת הדר", "name_eng": "Bat Hadar", "area_km2": 0.14172885906875132, "pop_2015": 704 }, "geometry": { "type": "Point", "coordinates": [ 34.597122532411944, 31.648041013963198 ] } },
{ "type": "Feature", "properties": { "town": "1319", "name_heb": "בת חפר", "name_eng": "Bat Hefer", "area_km2": 1.1042891591074466, "pop_2015": 5448 }, "geometry": { "type": "Point", "coordinates": [ 35.013073727192918, 32.333430825544397 ] } },
{ "type": "Feature", "properties": { "town": "1361", "name_heb": "בת חן", "name_eng": "Bat Hen", "area_km2": 0.092329230030357839, "pop_2015": 422 }, "geometry": { "type": "Point", "coordinates": [ 34.873589284002051, 32.359785833782432 ] } },
{ "type": "Feature", "properties": { "town": "33", "name_heb": "בת שלמה", "name_eng": "Bat Shelomo", "area_km2": 14.080475264014362, "pop_2015": 608 }, "geometry": { "type": "Point", "coordinates": [ 35.013373936074991, 32.598937870968648 ] } },
{ "type": "Feature", "properties": { "town": "6200", "name_heb": "בת ים", "name_eng": "Bat Yam", "area_km2": 8.1078098709530835, "pop_2015": 128892 }, "geometry": { "type": "Point", "coordinates": [ 34.748876429486707, 32.014198944164811 ] } },
{ "type": "Feature", "properties": { "town": "389", "name_heb": "בצרה", "name_eng": "Bazra", "area_km2": 2.643151475816365, "pop_2015": 1118 }, "geometry": { "type": "Point", "coordinates": [ 34.87900420073079, 32.210783720352005 ] } },
{ "type": "Feature", "properties": { "town": "21", "name_heb": "באר אורה", "name_eng": "Be'er Ora", "area_km2": 6.8039182996743914, "pop_2015": 617 }, "geometry": { "type": "Point", "coordinates": [ 34.977458837570381, 29.712133296226209 ] } },
{ "type": "Feature", "properties": { "town": "9000", "name_heb": "באר שבע", "name_eng": "Be'er Sheva", "area_km2": 117.17748583245526, "pop_2015": 203604 }, "geometry": { "type": "Point", "coordinates": [ 34.788373311120587, 31.257010505917656 ] } },
{ "type": "Feature", "properties": { "town": "155", "name_heb": "באר טוביה", "name_eng": "Be'er Toviyya", "area_km2": 6.2802748970155413, "pop_2015": 1030 }, "geometry": { "type": "Point", "coordinates": [ 34.714140820486406, 31.730897311850825 ] } },
{ "type": "Feature", "properties": { "town": "2530", "name_heb": "באר יעקב", "name_eng": "Be'er Ya'aqov", "area_km2": 8.6049345745463661, "pop_2015": 18401 }, "geometry": { "type": "Point", "coordinates": [ 34.840205397498991, 31.943773974088021 ] } },
{ "type": "Feature", "properties": { "town": "399", "name_heb": "בארי", "name_eng": "Be'eri", "area_km2": 11.998235924329339, "pop_2015": 996 }, "geometry": { "type": "Point", "coordinates": [ 34.494954130158796, 31.419122714171909 ] } },
{ "type": "Feature", "properties": { "town": "450", "name_heb": "בארות יצחק", "name_eng": "Be'erot Yizhaq", "area_km2": 2.8976570483475914, "pop_2015": 415 }, "geometry": { "type": "Point", "coordinates": [ 34.913151980657425, 32.035216575059302 ] } },
{ "type": "Feature", "properties": { "town": "697", "name_heb": "בארותיים", "name_eng": "Be'erotayim", "area_km2": 3.6192125412825344, "pop_2015": 1116 }, "geometry": { "type": "Point", "coordinates": [ 34.980716575444355, 32.321342560065482 ] } },
{ "type": "Feature", "properties": { "town": "480", "name_heb": "בית ג'ן", "name_eng": "Beit Jann", "area_km2": 4.876431984289229, "pop_2015": 11426 }, "geometry": { "type": "Point", "coordinates": [ 35.382630944410366, 32.966611851181156 ] } },
{ "type": "Feature", "properties": { "town": "712", "name_heb": "בן עמי", "name_eng": "Ben Ammi", "area_km2": 2.859736280245885, "pop_2015": 745 }, "geometry": { "type": "Point", "coordinates": [ 35.123745503677107, 33.004316545435543 ] } },
{ "type": "Feature", "properties": { "town": "2013", "name_heb": "בן שמן (מושב)", "name_eng": "Ben Shemen (moshav)", "area_km2": 2.8025093087615369, "pop_2015": 855 }, "geometry": { "type": "Point", "coordinates": [ 34.919573997851145, 31.950484806752666 ] } },
{ "type": "Feature", "properties": { "town": "1084", "name_heb": "בן שמן (כפר נוער)", "name_eng": "Ben Shemen(k.no'ar)", "area_km2": 1.8137736751958429, "pop_2015": 625 }, "geometry": { "type": "Point", "coordinates": [ 34.926747252444635, 31.961572541723115 ] } },
{ "type": "Feature", "properties": { "town": "760", "name_heb": "בן זכאי", "name_eng": "Ben Zakkay", "area_km2": 4.2667820208758416, "pop_2015": 1083 }, "geometry": { "type": "Point", "coordinates": [ 34.698491163170452, 31.828940005843947 ] } },
{ "type": "Feature", "properties": { "town": "685", "name_heb": "בניה", "name_eng": "Benaya", "area_km2": 3.2605741539925486, "pop_2015": 792 }, "geometry": { "type": "Point", "coordinates": [ 34.749003519032122, 31.844745250662928 ] } },
{ "type": "Feature", "properties": { "town": "448", "name_heb": "בני עטרות", "name_eng": "Bene Atarot", "area_km2": 2.9926582511912145, "pop_2015": 995 }, "geometry": { "type": "Point", "coordinates": [ 34.914714777172215, 32.021211859776031 ] } },
{ "type": "Feature", "properties": { "town": "1066", "name_heb": "בני עיש", "name_eng": "Bene Ayish", "area_km2": 0.96208368102620534, "pop_2015": 6920 }, "geometry": { "type": "Point", "coordinates": [ 34.761086045303266, 31.791102012630667 ] } },
{ "type": "Feature", "properties": { "town": "6100", "name_heb": "בני ברק", "name_eng": "Bene Beraq", "area_km2": 7.3995235232120766, "pop_2015": 182799 }, "geometry": { "type": "Point", "coordinates": [ 34.835833744454263, 32.090126327540105 ] } },
{ "type": "Feature", "properties": { "town": "592", "name_heb": "בני דרום", "name_eng": "Bene Darom", "area_km2": 2.7950925135006308, "pop_2015": 671 }, "geometry": { "type": "Point", "coordinates": [ 34.693877428159006, 31.819515126922241 ] } },
{ "type": "Feature", "properties": { "town": "386", "name_heb": "בני דרור", "name_eng": "Bene Deror", "area_km2": 3.3006441843509449, "pop_2015": 1216 }, "geometry": { "type": "Point", "coordinates": [ 34.901430402401289, 32.256977463854994 ] } },
{ "type": "Feature", "properties": { "town": "588", "name_heb": "בני ראם", "name_eng": "Bene Re'em", "area_km2": 3.6255109733838435, "pop_2015": 1353 }, "geometry": { "type": "Point", "coordinates": [ 34.790967232133795, 31.771619268054206 ] } },
{ "type": "Feature", "properties": { "town": "4015", "name_heb": "בני יהודה", "name_eng": "Bene Yehuda", "area_km2": 3.7373526012244094, "pop_2015": 1040 }, "geometry": { "type": "Point", "coordinates": [ 35.673833661922473, 32.792123737766936 ] } },
{ "type": "Feature", "properties": { "town": "418", "name_heb": "בני ציון", "name_eng": "Bene Ziyyon", "area_km2": 3.3327902054145904, "pop_2015": 1392 }, "geometry": { "type": "Point", "coordinates": [ 34.867535553230844, 32.217635196988425 ] } },
{ "type": "Feature", "properties": { "town": "3612", "name_heb": "בקעות", "name_eng": "Beqa'ot", "area_km2": 0.14281304119610785, "pop_2015": 182 }, "geometry": { "type": "Point", "coordinates": [ 35.454025549144525, 32.243266000719721 ] } },
{ "type": "Feature", "properties": { "town": "864", "name_heb": "בקוע", "name_eng": "Beqoa", "area_km2": 0.60263968611922114, "pop_2015": 665 }, "geometry": { "type": "Point", "coordinates": [ 34.925365122195622, 31.82920022494249 ] } },
{ "type": "Feature", "properties": { "town": "3710", "name_heb": "ברכה", "name_eng": "Berakha", "area_km2": 0.16874096537375449, "pop_2015": 2267 }, "geometry": { "type": "Point", "coordinates": [ 35.265510278214492, 32.191949235273114 ] } },
{ "type": "Feature", "properties": { "town": "746", "name_heb": "ברכיה", "name_eng": "Berekhya", "area_km2": 3.6191972739340361, "pop_2015": 1199 }, "geometry": { "type": "Point", "coordinates": [ 34.630025481241901, 31.668214811287587 ] } },
{ "type": "Feature", "properties": { "town": "428", "name_heb": "ברור חיל", "name_eng": "Beror Hayil", "area_km2": 7.2673957856060261, "pop_2015": 880 }, "geometry": { "type": "Point", "coordinates": [ 34.643236630678608, 31.556951615066929 ] } },
{ "type": "Feature", "properties": { "town": "2060", "name_heb": "ברוש", "name_eng": "Berosh", "area_km2": 2.3748299335511325, "pop_2015": 439 }, "geometry": { "type": "Point", "coordinates": [ 34.631945995932618, 31.367139400011638 ] } },
{ "type": "Feature", "properties": { "town": "95", "name_heb": "בית אלפא", "name_eng": "Bet Alfa", "area_km2": 10.868318536656826, "pop_2015": 862 }, "geometry": { "type": "Point", "coordinates": [ 35.463825449254962, 32.540568004437837 ] } },
{ "type": "Feature", "properties": { "town": "604", "name_heb": "בית עריף", "name_eng": "Bet Arif", "area_km2": 2.4437183581018371, "pop_2015": 1112 }, "geometry": { "type": "Point", "coordinates": [ 34.93340490793419, 31.999698886077859 ] } },
{ "type": "Feature", "properties": { "town": "3652", "name_heb": "בית אריה", "name_eng": "Bet Arye", "area_km2": 2.6606095060143766, "pop_2015": 4721 }, "geometry": { "type": "Point", "coordinates": [ 35.048373917229, 32.033816905042933 ] } },
{ "type": "Feature", "properties": { "town": "1076", "name_heb": "בית ברל", "name_eng": "Bet Berl", "area_km2": 0.32815577289569375, "pop_2015": 113 }, "geometry": { "type": "Point", "coordinates": [ 34.924983289850353, 32.200936525857131 ] } },
{ "type": "Feature", "properties": { "town": "466", "name_heb": "בית דגן", "name_eng": "Bet Dagan", "area_km2": 1.3335077075004316, "pop_2015": 7099 }, "geometry": { "type": "Point", "coordinates": [ 34.829556310682435, 31.999707461719716 ] } },
{ "type": "Feature", "properties": { "town": "3574", "name_heb": "בית אל", "name_eng": "Bet El", "area_km2": 1.5161421411616502, "pop_2015": 6046 }, "geometry": { "type": "Point", "coordinates": [ 35.226002948868661, 31.94076179386046 ] } },
{ "type": "Feature", "properties": { "town": "562", "name_heb": "בית אלעזרי", "name_eng": "Bet El'azari", "area_km2": 10.995030587959617, "pop_2015": 1494 }, "geometry": { "type": "Point", "coordinates": [ 34.810186580266638, 31.840405528793077 ] } },
{ "type": "Feature", "properties": { "town": "756", "name_heb": "בית עזרא", "name_eng": "Bet Ezra", "area_km2": 3.9873430522175952, "pop_2015": 1090 }, "geometry": { "type": "Point", "coordinates": [ 34.654132320632797, 31.736756242160961 ] } },
{ "type": "Feature", "properties": { "town": "571", "name_heb": "בית גמליאל", "name_eng": "Bet Gamli'el", "area_km2": 4.6386380026383698, "pop_2015": 953 }, "geometry": { "type": "Point", "coordinates": [ 34.752184174889031, 31.855069410348698 ] } },
{ "type": "Feature", "properties": { "town": "619", "name_heb": "בית גוברין", "name_eng": "Bet Guvrin", "area_km2": 25.280661394949981, "pop_2015": 436 }, "geometry": { "type": "Point", "coordinates": [ 34.881513854595788, 31.614040694555161 ] } },
{ "type": "Feature", "properties": { "town": "3645", "name_heb": "בית הערבה", "name_eng": "Bet Haarava", "area_km2": 0.14112122587442397, "pop_2015": 159 }, "geometry": { "type": "Point", "coordinates": [ 35.499253101387652, 31.80758612984571 ] } },
{ "type": "Feature", "properties": { "town": "572", "name_heb": "בית העמק", "name_eng": "Bet Haemeq", "area_km2": 3.4385477433935998, "pop_2015": 511 }, "geometry": { "type": "Point", "coordinates": [ 35.138453748496772, 32.973097284554541 ] } },
{ "type": "Feature", "properties": { "town": "723", "name_heb": "בית הגדי", "name_eng": "Bet Hagaddi", "area_km2": 5.6895127930465934, "pop_2015": 730 }, "geometry": { "type": "Point", "coordinates": [ 34.607435065853799, 31.430984971518477 ] } },
{ "type": "Feature", "properties": { "town": "373", "name_heb": "בית הלוי", "name_eng": "Bet Halewi", "area_km2": 2.720743637818992, "pop_2015": 813 }, "geometry": { "type": "Point", "coordinates": [ 34.935384746643976, 32.354009887123205 ] } },
{ "type": "Feature", "properties": { "town": "159", "name_heb": "בית חנן", "name_eng": "Bet Hanan", "area_km2": 8.4194192387915248, "pop_2015": 573 }, "geometry": { "type": "Point", "coordinates": [ 34.755597035525035, 31.919516050749586 ] } },
{ "type": "Feature", "properties": { "town": "800", "name_heb": "בית חנניה", "name_eng": "Bet Hananya", "area_km2": 3.4487002966187372, "pop_2015": 901 }, "geometry": { "type": "Point", "coordinates": [ 34.925715590138218, 32.537611482358358 ] } },
{ "type": "Feature", "properties": { "town": "242", "name_heb": "בית השיטה", "name_eng": "Bet Hashitta", "area_km2": 15.745772843716784, "pop_2015": 1215 }, "geometry": { "type": "Point", "coordinates": [ 35.454471473137623, 32.560796124037061 ] } },
{ "type": "Feature", "properties": { "town": "1050", "name_heb": "בית חשמונאי", "name_eng": "Bet Hashmonay", "area_km2": 0.080505369532653123, "pop_2015": 2171 }, "geometry": { "type": "Point", "coordinates": [ 34.917277181840412, 31.888319924058024 ] } },
{ "type": "Feature", "properties": { "town": "877", "name_heb": "בית חירות", "name_eng": "Bet Herut", "area_km2": 2.4448328451485781, "pop_2015": 881 }, "geometry": { "type": "Point", "coordinates": [ 34.893646912198669, 32.370190376082355 ] } },
{ "type": "Feature", "properties": { "town": "322", "name_heb": "בית הלל", "name_eng": "Bet Hillel", "area_km2": 4.5885224533859486, "pop_2015": 765 }, "geometry": { "type": "Point", "coordinates": [ 35.604478937978392, 33.211211288872782 ] } },
{ "type": "Feature", "properties": { "town": "2033", "name_heb": "בית חלקיה", "name_eng": "Bet Hilqiyya", "area_km2": 2.3004228392739741, "pop_2015": 888 }, "geometry": { "type": "Point", "coordinates": [ 34.812391885566235, 31.792712384737605 ] } },
{ "type": "Feature", "properties": { "town": "3575", "name_heb": "בית חורון", "name_eng": "Bet Horon", "area_km2": 0.042297295519828797, "pop_2015": 1228 }, "geometry": { "type": "Point", "coordinates": [ 35.131956974928102, 31.87477225653344 ] } },
{ "type": "Feature", "properties": { "town": "430", "name_heb": "בית לחם הגלילית", "name_eng": "Bet Lehem Hagelilit", "area_km2": 6.1489329728870912, "pop_2015": 777 }, "geometry": { "type": "Point", "coordinates": [ 35.193480237002746, 32.735302582711121 ] } },
{ "type": "Feature", "properties": { "town": "751", "name_heb": "בית מאיר", "name_eng": "Bet Me'ir", "area_km2": 0.32468733516439796, "pop_2015": 775 }, "geometry": { "type": "Point", "coordinates": [ 35.034916846064142, 31.7941095131997 ] } },
{ "type": "Feature", "properties": { "town": "784", "name_heb": "בית נחמיה", "name_eng": "Bet Nehemya", "area_km2": 2.3022513738442956, "pop_2015": 887 }, "geometry": { "type": "Point", "coordinates": [ 34.955534974936548, 31.975873889630719 ] } },
{ "type": "Feature", "properties": { "town": "672", "name_heb": "בית נקופה", "name_eng": "Bet Neqofa", "area_km2": 0.13351084691917894, "pop_2015": 633 }, "geometry": { "type": "Point", "coordinates": [ 35.12573575914444, 31.804859681600909 ] } },
{ "type": "Feature", "properties": { "town": "16", "name_heb": "בית ניר", "name_eng": "Bet Nir", "area_km2": 14.036702353376254, "pop_2015": 580 }, "geometry": { "type": "Point", "coordinates": [ 34.858148265432014, 31.654573439170409 ] } },
{ "type": "Feature", "properties": { "town": "317", "name_heb": "בית אורן", "name_eng": "Bet Oren", "area_km2": 12.957302631936464, "pop_2015": 452 }, "geometry": { "type": "Point", "coordinates": [ 34.985712736163336, 32.726683217981879 ] } },
{ "type": "Feature", "properties": { "town": "202", "name_heb": "בית עובד", "name_eng": "Bet Oved", "area_km2": 1.4938275113789439, "pop_2015": 309 }, "geometry": { "type": "Point", "coordinates": [ 34.769618563076257, 31.922372837418134 ] } },
{ "type": "Feature", "properties": { "town": "598", "name_heb": "בית קמה", "name_eng": "Bet Qama", "area_km2": 5.812889562935263, "pop_2015": 1356 }, "geometry": { "type": "Point", "coordinates": [ 34.752098606095274, 31.452563307312381 ] } },
{ "type": "Feature", "properties": { "town": "365", "name_heb": "בית קשת", "name_eng": "Bet Qeshet", "area_km2": 9.5516014250178998, "pop_2015": 591 }, "geometry": { "type": "Point", "coordinates": [ 35.407771397922232, 32.722604476752096 ] } },
{ "type": "Feature", "properties": { "town": "848", "name_heb": "בית רבן", "name_eng": "Bet Rabban", "area_km2": 0.10456695383855701, "pop_2015": 1057 }, "geometry": { "type": "Point", "coordinates": [ 34.728104881965656, 31.817236574787881 ] } },
{ "type": "Feature", "properties": { "town": "1162", "name_heb": "בית רימון", "name_eng": "Bet Rimmon", "area_km2": 11.620915049699486, "pop_2015": 623 }, "geometry": { "type": "Point", "coordinates": [ 35.345803391029726, 32.785119517693389 ] } },
{ "type": "Feature", "properties": { "town": "9200", "name_heb": "בית שאן", "name_eng": "Bet She'an", "area_km2": 7.1970708494649225, "pop_2015": 17332 }, "geometry": { "type": "Point", "coordinates": [ 35.500478270144981, 32.499059930761078 ] } },
{ "type": "Feature", "properties": { "town": "248", "name_heb": "בית שערים", "name_eng": "Bet She'arim", "area_km2": 3.6745957384896277, "pop_2015": 747 }, "geometry": { "type": "Point", "coordinates": [ 35.171158819353906, 32.691785814586318 ] } },
{ "type": "Feature", "properties": { "town": "2610", "name_heb": "בית שמש", "name_eng": "Bet Shemesh", "area_km2": 35.03111589248384, "pop_2015": 103922 }, "geometry": { "type": "Point", "coordinates": [ 34.982358085941179, 31.72458781907488 ] } },
{ "type": "Feature", "properties": { "town": "747", "name_heb": "בית שקמה", "name_eng": "Bet Shiqma", "area_km2": 4.7470494257713627, "pop_2015": 827 }, "geometry": { "type": "Point", "coordinates": [ 34.617620856056519, 31.639139031724717 ] } },
{ "type": "Feature", "properties": { "town": "301", "name_heb": "בית עוזיאל", "name_eng": "Bet Uzzi'el", "area_km2": 3.7033173466673195, "pop_2015": 599 }, "geometry": { "type": "Point", "coordinates": [ 34.902933096034253, 31.870870115985376 ] } },
{ "type": "Feature", "properties": { "town": "200", "name_heb": "בית ינאי", "name_eng": "Bet Yannay", "area_km2": 1.4946894881552495, "pop_2015": 419 }, "geometry": { "type": "Point", "coordinates": [ 34.898421269397993, 32.363864390680398 ] } },
{ "type": "Feature", "properties": { "town": "288", "name_heb": "בית יהושע", "name_eng": "Bet Yehoshua", "area_km2": 2.4842410961602925, "pop_2015": 1062 }, "geometry": { "type": "Point", "coordinates": [ 34.859882474622161, 32.258138884486229 ] } },
{ "type": "Feature", "properties": { "town": "326", "name_heb": "בית יצחק-שער חפר", "name_eng": "Bet Yizhaq-sh. Hefer", "area_km2": 6.0026648285692721, "pop_2015": 2105 }, "geometry": { "type": "Point", "coordinates": [ 34.888346891509521, 32.333700830936309 ] } },
{ "type": "Feature", "properties": { "town": "265", "name_heb": "בית יוסף", "name_eng": "Bet Yosef", "area_km2": 3.332640544191539, "pop_2015": 433 }, "geometry": { "type": "Point", "coordinates": [ 35.549218203848199, 32.556899743145877 ] } },
{ "type": "Feature", "properties": { "town": "710", "name_heb": "בית זית", "name_eng": "Bet Zayit", "area_km2": 0.11009018726462125, "pop_2015": 1631 }, "geometry": { "type": "Point", "coordinates": [ 35.161159305104547, 31.782095017979696 ] } },
{ "type": "Feature", "properties": { "town": "353", "name_heb": "בית זיד", "name_eng": "Bet Zeid", "area_km2": 1.684873326124966, "pop_2015": 74 }, "geometry": { "type": "Point", "coordinates": [ 35.118169956663628, 32.697746979606585 ] } },
{ "type": "Feature", "properties": { "town": "143", "name_heb": "בית זרע", "name_eng": "Bet Zera", "area_km2": 2.356694917475894, "pop_2015": 567 }, "geometry": { "type": "Point", "coordinates": [ 35.568136306663796, 32.682530704064639 ] } },
{ "type": "Feature", "properties": { "town": "212", "name_heb": "בית צבי", "name_eng": "Bet Zevi", "area_km2": 0.22848121386581657, "pop_2015": 201 }, "geometry": { "type": "Point", "coordinates": [ 34.970108301488231, 32.719860058812024 ] } },
{ "type": "Feature", "properties": { "town": "3780", "name_heb": "ביתר עילית", "name_eng": "Betar Illit", "area_km2": 4.3274082325300629, "pop_2015": 49343 }, "geometry": { "type": "Point", "coordinates": [ 35.11238240788326, 31.699963348071698 ] } },
{ "type": "Feature", "properties": { "town": "589", "name_heb": "בצת", "name_eng": "Bezet", "area_km2": 4.1505026854669298, "pop_2015": 250 }, "geometry": { "type": "Point", "coordinates": [ 35.125225053989631, 33.069756446357772 ] } },
{ "type": "Feature", "properties": { "town": "9800", "name_heb": "בנימינה-גבעת עדה*", "name_eng": "Binyamina-giv'at Ada", "area_km2": 25.348208905462826, "pop_2015": 14777 }, "geometry": { "type": "Point", "coordinates": [ 34.967454165726359, 32.518466338352439 ] } },
{ "type": "Feature", "properties": { "town": "998", "name_heb": "ביר אל-מכסור", "name_eng": "Bir El-maksur", "area_km2": 4.5743151941194382, "pop_2015": 8709 }, "geometry": { "type": "Point", "coordinates": [ 35.221973746956039, 32.7861790184309 ] } },
{ "type": "Feature", "properties": { "town": "1348", "name_heb": "ביר הדאג'", "name_eng": "Bir Hadage", "area_km2": 6.6584747479006348, "pop_2015": 4583 }, "geometry": { "type": "Point", "coordinates": [ 34.703003384937702, 31.024607896897091 ] } },
{ "type": "Feature", "properties": { "town": "368", "name_heb": "בירייה", "name_eng": "Biriyya", "area_km2": 4.1115667171834707, "pop_2015": 822 }, "geometry": { "type": "Point", "coordinates": [ 35.507692887411864, 32.989342780137243 ] } },
{ "type": "Feature", "properties": { "town": "252", "name_heb": "ביתן אהרן", "name_eng": "Bitan Aharon", "area_km2": 1.380877557134047, "pop_2015": 361 }, "geometry": { "type": "Point", "coordinates": [ 34.894535426637042, 32.359093568935492 ] } },
{ "type": "Feature", "properties": { "town": "762", "name_heb": "בטחה", "name_eng": "Bitha", "area_km2": 2.7034617551668734, "pop_2015": 721 }, "geometry": { "type": "Point", "coordinates": [ 34.634045703682446, 31.334954996917116 ] } },
{ "type": "Feature", "properties": { "town": "234", "name_heb": "ביצרון", "name_eng": "Bizzaron", "area_km2": 2.4526086482280491, "pop_2015": 1221 }, "geometry": { "type": "Point", "coordinates": [ 34.722965102175316, 31.800496363236022 ] } },
{ "type": "Feature", "properties": { "town": "482", "name_heb": "בועיינה-נוג'ידאת", "name_eng": "Bu'eine-nujeidat", "area_km2": 6.7378031855308409, "pop_2015": 9114 }, "geometry": { "type": "Point", "coordinates": [ 35.369057295320061, 32.811860473798355 ] } },
{ "type": "Feature", "properties": { "town": "4001", "name_heb": "בוקעאתא", "name_eng": "Buq'ata", "area_km2": 19.460283659152768, "pop_2015": 6329 }, "geometry": { "type": "Point", "coordinates": [ 35.780989548270078, 33.207850017605551 ] } },
{ "type": "Feature", "properties": { "town": "698", "name_heb": "בורגתה", "name_eng": "Burgeta", "area_km2": 3.480463763499051, "pop_2015": 1128 }, "geometry": { "type": "Point", "coordinates": [ 34.961515247041959, 32.325793183529129 ] } },
{ "type": "Feature", "properties": { "town": "559", "name_heb": "בוסתן הגליל", "name_eng": "Bustan Hagalil", "area_km2": 2.5170308312898872, "pop_2015": 961 }, "geometry": { "type": "Point", "coordinates": [ 35.082974407979513, 32.953048179481499 ] } },
{ "type": "Feature", "properties": { "town": "489", "name_heb": "דבורייה", "name_eng": "Daburiyya", "area_km2": 5.4955826737916169, "pop_2015": 9889 }, "geometry": { "type": "Point", "coordinates": [ 35.367137070804787, 32.689563643990262 ] } },
{ "type": "Feature", "properties": { "town": "302", "name_heb": "דפנה", "name_eng": "Dafna", "area_km2": 5.660087075469149, "pop_2015": 908 }, "geometry": { "type": "Point", "coordinates": [ 35.629772304950222, 33.217388818313722 ] } },
{ "type": "Feature", "properties": { "town": "475", "name_heb": "דחי", "name_eng": "Dahi", "area_km2": 0.18374749533921481, "pop_2015": 636 }, "geometry": { "type": "Point", "coordinates": [ 35.344995171523657, 32.621275920128497 ] } },
{ "type": "Feature", "properties": { "town": "300", "name_heb": "דלייה", "name_eng": "Daliyya", "area_km2": 10.162827972317212, "pop_2015": 792 }, "geometry": { "type": "Point", "coordinates": [ 35.078841579440976, 32.583948456339137 ] } },
{ "type": "Feature", "properties": { "town": "431", "name_heb": "דלתון", "name_eng": "Dalton", "area_km2": 8.7985082962693273, "pop_2015": 869 }, "geometry": { "type": "Point", "coordinates": [ 35.502617150969392, 33.021330846010194 ] } },
{ "type": "Feature", "properties": { "town": "303", "name_heb": "דן", "name_eng": "Dan", "area_km2": 4.9261069775770681, "pop_2015": 666 }, "geometry": { "type": "Point", "coordinates": [ 35.636531765659583, 33.218730192158951 ] } },
{ "type": "Feature", "properties": { "town": "407", "name_heb": "דברת", "name_eng": "Daverat", "area_km2": 17.322982542439146, "pop_2015": 353 }, "geometry": { "type": "Point", "coordinates": [ 35.356760977832941, 32.658749948919066 ] } },
{ "type": "Feature", "properties": { "town": "62", "name_heb": "דגניה א'", "name_eng": "Deganya Alef", "area_km2": 1.1473321446261406, "pop_2015": 534 }, "geometry": { "type": "Point", "coordinates": [ 35.574844180272052, 32.705943632107825 ] } },
{ "type": "Feature", "properties": { "town": "79", "name_heb": "דגניה ב'", "name_eng": "Deganya Bet", "area_km2": 1.8595937273415772, "pop_2015": 643 }, "geometry": { "type": "Point", "coordinates": [ 35.576498954764602, 32.696906196904862 ] } },
{ "type": "Feature", "properties": { "town": "492", "name_heb": "דייר חנא", "name_eng": "Deir Hanna", "area_km2": 9.1090551351122695, "pop_2015": 9831 }, "geometry": { "type": "Point", "coordinates": [ 35.36800921940128, 32.864844516476914 ] } },
{ "type": "Feature", "properties": { "town": "493", "name_heb": "דייר ראפאת", "name_eng": "Deir Rafat", "area_km2": 0.2809372759620547, "pop_2015": 83 }, "geometry": { "type": "Point", "coordinates": [ 34.946055406199264, 31.775864745751392 ] } },
{ "type": "Feature", "properties": { "town": "1317", "name_heb": "דמיידה", "name_eng": "Demeide", "area_km2": 0.53434074831316247, "pop_2015": 463 }, "geometry": { "type": "Point", "coordinates": [ 35.227692002996498, 32.814222803357197 ] } },
{ "type": "Feature", "properties": { "town": "1241", "name_heb": "דקל", "name_eng": "Deqel", "area_km2": 3.1401400797290799, "pop_2015": 311 }, "geometry": { "type": "Point", "coordinates": [ 34.345366730590229, 31.195919081031203 ] } },
{ "type": "Feature", "properties": { "town": "1349", "name_heb": "דריג'את", "name_eng": "Derig'at", "area_km2": 0.83115540654741227, "pop_2015": 1065 }, "geometry": { "type": "Point", "coordinates": [ 35.077147921087473, 31.298852492709507 ] } },
{ "type": "Feature", "properties": { "town": "849", "name_heb": "דבירה", "name_eng": "Devira", "area_km2": 8.5690948555924287, "pop_2015": 797 }, "geometry": { "type": "Point", "coordinates": [ 34.819962590405225, 31.401903227814966 ] } },
{ "type": "Feature", "properties": { "town": "146", "name_heb": "דבורה", "name_eng": "Devora", "area_km2": 3.3203442890067771, "pop_2015": 227 }, "geometry": { "type": "Point", "coordinates": [ 35.266905568807545, 32.560046345124952 ] } },
{ "type": "Feature", "properties": { "town": "2200", "name_heb": "דימונה", "name_eng": "Dimona", "area_km2": 172.78308666559641, "pop_2015": 33258 }, "geometry": { "type": "Point", "coordinates": [ 35.093892853533255, 31.015476225021946 ] } },
{ "type": "Feature", "properties": { "town": "2063", "name_heb": "דישון", "name_eng": "Dishon", "area_km2": 10.28416969946219, "pop_2015": 354 }, "geometry": { "type": "Point", "coordinates": [ 35.523740184965462, 33.078371169264102 ] } },
{ "type": "Feature", "properties": { "town": "3747", "name_heb": "דולב", "name_eng": "Dolev", "area_km2": 0.00098262016308680168, "pop_2015": 1302 }, "geometry": { "type": "Point", "coordinates": [ 35.135147899982897, 31.925838182964757 ] } },
{ "type": "Feature", "properties": { "town": "738", "name_heb": "דור", "name_eng": "Dor", "area_km2": 2.6640967689898236, "pop_2015": 398 }, "geometry": { "type": "Point", "coordinates": [ 34.928795223959405, 32.607145950021859 ] } },
{ "type": "Feature", "properties": { "town": "336", "name_heb": "דורות", "name_eng": "Dorot", "area_km2": 10.037179612506986, "pop_2015": 756 }, "geometry": { "type": "Point", "coordinates": [ 34.6500339105989, 31.508779777632991 ] } },
{ "type": "Feature", "properties": { "town": "1067", "name_heb": "דובב", "name_eng": "Dovev", "area_km2": 5.9558853531240814, "pop_2015": 478 }, "geometry": { "type": "Point", "coordinates": [ 35.404944190133058, 33.051626585659299 ] } },
{ "type": "Feature", "properties": { "town": "3650", "name_heb": "אפרתה", "name_eng": "Efrata", "area_km2": 6.3484253106076789, "pop_2015": 8301 }, "geometry": { "type": "Point", "coordinates": [ 35.172109905678781, 31.671630612646673 ] } },
{ "type": "Feature", "properties": { "town": "530", "name_heb": "עיילבון", "name_eng": "Eilabun", "area_km2": 4.9481873547423199, "pop_2015": 5558 }, "geometry": { "type": "Point", "coordinates": [ 35.400482385188766, 32.842008829974539 ] } },
{ "type": "Feature", "properties": { "town": "546", "name_heb": "עין אל-אסד", "name_eng": "Ein Al-asad", "area_km2": 2.5408992100228516, "pop_2015": 866 }, "geometry": { "type": "Point", "coordinates": [ 35.402614926983887, 32.940102713437227 ] } },
{ "type": "Feature", "properties": { "town": "1320", "name_heb": "עין חוד", "name_eng": "Ein Hod", "area_km2": 0.040056627345442769, "pop_2015": 273 }, "geometry": { "type": "Point", "coordinates": [ 34.999661783985395, 32.691386323538765 ] } },
{ "type": "Feature", "properties": { "town": "532", "name_heb": "עין מאהל", "name_eng": "Ein Mahel", "area_km2": 5.0704722720864135, "pop_2015": 12484 }, "geometry": { "type": "Point", "coordinates": [ 35.354884923580038, 32.718858737780018 ] } },
{ "type": "Feature", "properties": { "town": "521", "name_heb": "עין נקובא", "name_eng": "Ein Naqquba", "area_km2": 0.023585050007045267, "pop_2015": 3064 }, "geometry": { "type": "Point", "coordinates": [ 35.118167428753999, 31.793398398458208 ] } },
{ "type": "Feature", "properties": { "town": "4502", "name_heb": "עין קנייא", "name_eng": "Ein Qiniyye", "area_km2": 5.2345352184171077, "pop_2015": 1945 }, "geometry": { "type": "Point", "coordinates": [ 35.735044063129195, 33.238270553727311 ] } },
{ "type": "Feature", "properties": { "town": "514", "name_heb": "עין ראפה", "name_eng": "Ein Rafa", "area_km2": 0.0059632643775939936, "pop_2015": 1138 }, "geometry": { "type": "Point", "coordinates": [ 35.117676854442522, 31.790649340532013 ] } },
{ "type": "Feature", "properties": { "town": "4003", "name_heb": "אל -רום", "name_eng": "El-rom", "area_km2": 46.196812369984862, "pop_2015": 338 }, "geometry": { "type": "Point", "coordinates": [ 35.782951392007085, 33.168700952660188 ] } },
{ "type": "Feature", "properties": { "town": "1309", "name_heb": "אלעד", "name_eng": "El'ad", "area_km2": 2.656353793788135, "pop_2015": 44872 }, "geometry": { "type": "Point", "coordinates": [ 34.957916254744561, 32.051657092829501 ] } },
{ "type": "Feature", "properties": { "town": "3618", "name_heb": "אלעזר", "name_eng": "El'azar", "area_km2": 0.18591867199677228, "pop_2015": 2577 }, "geometry": { "type": "Point", "coordinates": [ 35.144585623668249, 31.658486490911926 ] } },
{ "type": "Feature", "properties": { "town": "2600", "name_heb": "אילת", "name_eng": "Elat", "area_km2": 100.83180521769712, "pop_2015": 49734 }, "geometry": { "type": "Point", "coordinates": [ 34.938368491026807, 29.580311045260519 ] } },
{ "type": "Feature", "properties": { "town": "3765", "name_heb": "עלי", "name_eng": "Eli", "area_km2": 0.17830662296962738, "pop_2015": 4092 }, "geometry": { "type": "Point", "coordinates": [ 35.265252833086329, 32.071744469535446 ] } },
{ "type": "Feature", "properties": { "town": "4002", "name_heb": "אלי-עד", "name_eng": "Eli-ad", "area_km2": 9.1649079295153619, "pop_2015": 350 }, "geometry": { "type": "Point", "coordinates": [ 35.716046711324509, 32.796956372090719 ] } },
{ "type": "Feature", "properties": { "town": "1248", "name_heb": "אליפז", "name_eng": "Elifaz", "area_km2": 12.353050379004195, "pop_2015": 129 }, "geometry": { "type": "Point", "coordinates": [ 35.031650536469336, 29.799160562629563 ] } },
{ "type": "Feature", "properties": { "town": "730", "name_heb": "אליפלט", "name_eng": "Elifelet", "area_km2": 7.6060513168100563, "pop_2015": 554 }, "geometry": { "type": "Point", "coordinates": [ 35.550851767857871, 32.946817186214396 ] } },
{ "type": "Feature", "properties": { "town": "841", "name_heb": "אלישמע", "name_eng": "Elishama", "area_km2": 1.5432630368774383, "pop_2015": 1212 }, "geometry": { "type": "Point", "coordinates": [ 34.92801044121417, 32.153562467728371 ] } },
{ "type": "Feature", "properties": { "town": "294", "name_heb": "אילון", "name_eng": "Elon", "area_km2": 9.5688778160854273, "pop_2015": 962 }, "geometry": { "type": "Point", "coordinates": [ 35.205204511759092, 33.059840374992106 ] } },
{ "type": "Feature", "properties": { "town": "3579", "name_heb": "אלון מורה", "name_eng": "Elon More", "area_km2": 0.25858594275712965, "pop_2015": 1794 }, "geometry": { "type": "Point", "coordinates": [ 35.328375806101462, 32.230338235344462 ] } },
{ "type": "Feature", "properties": { "town": "1126", "name_heb": "אילות", "name_eng": "Elot", "area_km2": 0.64739111993885035, "pop_2015": 322 }, "geometry": { "type": "Point", "coordinates": [ 34.962163811812609, 29.58154676799678 ] } },
{ "type": "Feature", "properties": { "town": "3560", "name_heb": "אלקנה", "name_eng": "Elqana", "area_km2": 0.82969248229500647, "pop_2015": 3945 }, "geometry": { "type": "Point", "coordinates": [ 35.036324515531753, 32.11144161335649 ] } },
{ "type": "Feature", "properties": { "town": "603", "name_heb": "אלקוש", "name_eng": "Elqosh", "area_km2": 5.049031528425008, "pop_2015": 318 }, "geometry": { "type": "Point", "coordinates": [ 35.322522660862127, 33.030384133043384 ] } },
{ "type": "Feature", "properties": { "town": "41", "name_heb": "אליכין", "name_eng": "Elyakhin", "area_km2": 1.5689049710000753, "pop_2015": 3424 }, "geometry": { "type": "Point", "coordinates": [ 34.921697742177926, 32.40844293334505 ] } },
{ "type": "Feature", "properties": { "town": "682", "name_heb": "אליקים", "name_eng": "Elyaqim", "area_km2": 4.8913666169671863, "pop_2015": 857 }, "geometry": { "type": "Point", "coordinates": [ 35.05756230933671, 32.629430320801248 ] } },
{ "type": "Feature", "properties": { "town": "204", "name_heb": "אלישיב", "name_eng": "Elyashiv", "area_km2": 1.8709170758568345, "pop_2015": 728 }, "geometry": { "type": "Point", "coordinates": [ 34.909421357195392, 32.379633204516246 ] } },
{ "type": "Feature", "properties": { "town": "772", "name_heb": "אמונים", "name_eng": "Emunim", "area_km2": 3.3689610750431194, "pop_2015": 934 }, "geometry": { "type": "Point", "coordinates": [ 34.671515607905761, 31.744965108214952 ] } },
{ "type": "Feature", "properties": { "town": "687", "name_heb": "עין איילה", "name_eng": "En Ayyala", "area_km2": 3.4828256173371375, "pop_2015": 1127 }, "geometry": { "type": "Point", "coordinates": [ 34.938819529273395, 32.624418647155018 ] } },
{ "type": "Feature", "properties": { "town": "436", "name_heb": "עין דור", "name_eng": "En Dor", "area_km2": 26.566681240861683, "pop_2015": 986 }, "geometry": { "type": "Point", "coordinates": [ 35.390300424826002, 32.640240737802053 ] } },
{ "type": "Feature", "properties": { "town": "2042", "name_heb": "עין גדי", "name_eng": "En Gedi", "area_km2": 9.1720601892271851, "pop_2015": 561 }, "geometry": { "type": "Point", "coordinates": [ 35.387301696110811, 31.466111682700237 ] } },
{ "type": "Feature", "properties": { "town": "273", "name_heb": "עין גב", "name_eng": "En Gev", "area_km2": 4.6437580809972179, "pop_2015": 638 }, "geometry": { "type": "Point", "coordinates": [ 35.641101542004712, 32.772684533220733 ] } },
{ "type": "Feature", "properties": { "town": "1240", "name_heb": "עין הבשור", "name_eng": "En Habesor", "area_km2": 2.9184395919010639, "pop_2015": 1127 }, "geometry": { "type": "Point", "coordinates": [ 34.451259747101624, 31.281680603071138 ] } },
{ "type": "Feature", "properties": { "town": "367", "name_heb": "עין העמק", "name_eng": "En Haemeq", "area_km2": 3.0499458845675886, "pop_2015": 749 }, "geometry": { "type": "Point", "coordinates": [ 35.075197819362728, 32.625445511412046 ] } },
{ "type": "Feature", "properties": { "town": "167", "name_heb": "עין החורש", "name_eng": "En Hahoresh", "area_km2": 3.6379980665076226, "pop_2015": 744 }, "geometry": { "type": "Point", "coordinates": [ 34.942556128780346, 32.38023828367438 ] } },
{ "type": "Feature", "properties": { "town": "289", "name_heb": "עין המפרץ", "name_eng": "En Hamifraz", "area_km2": 8.3997606216530496, "pop_2015": 1197 }, "geometry": { "type": "Point", "coordinates": [ 35.111467828929875, 32.906397952996578 ] } },
{ "type": "Feature", "properties": { "town": "383", "name_heb": "עין הנציב", "name_eng": "En Hanaziv", "area_km2": 7.355782185976147, "pop_2015": 609 }, "geometry": { "type": "Point", "coordinates": [ 35.507534679740552, 32.459023900417812 ] } },
{ "type": "Feature", "properties": { "town": "89", "name_heb": "עין חרוד (איחוד)", "name_eng": "En Harod (ihud)", "area_km2": 12.2828329309576, "pop_2015": 529 }, "geometry": { "type": "Point", "coordinates": [ 35.41397494703989, 32.578593011003171 ] } },
{ "type": "Feature", "properties": { "town": "82", "name_heb": "עין חרוד (מאוחד)", "name_eng": "En Harod(me'uhad)", "area_km2": 12.978721404715815, "pop_2015": 735 }, "geometry": { "type": "Point", "coordinates": [ 35.422678654593284, 32.571697355644744 ] } },
{ "type": "Feature", "properties": { "town": "676", "name_heb": "עין השלושה", "name_eng": "En Hashelosha", "area_km2": 14.114031073475875, "pop_2015": 372 }, "geometry": { "type": "Point", "coordinates": [ 34.400592555600248, 31.35559413152793 ] } },
{ "type": "Feature", "properties": { "town": "270", "name_heb": "עין השופט", "name_eng": "En Hashofet", "area_km2": 12.030387618400923, "pop_2015": 821 }, "geometry": { "type": "Point", "coordinates": [ 35.106104247443668, 32.589323748621297 ] } },
{ "type": "Feature", "properties": { "town": "74", "name_heb": "עין הוד", "name_eng": "En Hod", "area_km2": 0.51027883744645119, "pop_2015": 590 }, "geometry": { "type": "Point", "coordinates": [ 34.98240393965537, 32.701027193448674 ] } },
{ "type": "Feature", "properties": { "town": "223", "name_heb": "עין עירון", "name_eng": "En Iron", "area_km2": 2.0787738523865342, "pop_2015": 551 }, "geometry": { "type": "Point", "coordinates": [ 35.014590124076989, 32.483899254514043 ] } },
{ "type": "Feature", "properties": { "town": "1056", "name_heb": "עין כרם-ביס חקלאי", "name_eng": "En Karem-b.s.haqla'i", "area_km2": 0.067679084070235485, "pop_2015": 165 }, "geometry": { "type": "Point", "coordinates": [ 35.153350942296733, 31.778111683673899 ] } },
{ "type": "Feature", "properties": { "town": "426", "name_heb": "עין כרמל", "name_eng": "En Karmel", "area_km2": 6.0854430696816291, "pop_2015": 894 }, "geometry": { "type": "Point", "coordinates": [ 34.957423931076086, 32.678431973964756 ] } },
{ "type": "Feature", "properties": { "town": "880", "name_heb": "עין שריד", "name_eng": "En Sarid", "area_km2": 0.41161245054686069, "pop_2015": 1566 }, "geometry": { "type": "Point", "coordinates": [ 34.933127168564496, 32.274363025467878 ] } },
{ "type": "Feature", "properties": { "town": "139", "name_heb": "עין שמר", "name_eng": "En Shemer", "area_km2": 6.8010975357775489, "pop_2015": 572 }, "geometry": { "type": "Point", "coordinates": [ 35.005917384235488, 32.447779812881841 ] } },
{ "type": "Feature", "properties": { "town": "1251", "name_heb": "עין תמר", "name_eng": "En Tamar", "area_km2": 0.2368618368615508, "pop_2015": 190 }, "geometry": { "type": "Point", "coordinates": [ 35.362210595480718, 30.943255160867949 ] } },
{ "type": "Feature", "properties": { "town": "157", "name_heb": "עין ורד", "name_eng": "En Wered", "area_km2": 4.3317509267858343, "pop_2015": 1470 }, "geometry": { "type": "Point", "coordinates": [ 34.93598943832243, 32.264934647906358 ] } },
{ "type": "Feature", "properties": { "town": "813", "name_heb": "עין יעקב", "name_eng": "En Ya'aqov", "area_km2": 2.9090989812948105, "pop_2015": 987 }, "geometry": { "type": "Point", "coordinates": [ 35.231659628233913, 33.013585608392013 ] } },
{ "type": "Feature", "properties": { "town": "806", "name_heb": "עין יהב", "name_eng": "En Yahav", "area_km2": 23.872314300652025, "pop_2015": 665 }, "geometry": { "type": "Point", "coordinates": [ 35.229359620675524, 30.64374113653933 ] } },
{ "type": "Feature", "properties": { "town": "4503", "name_heb": "עין זיוון", "name_eng": "En Ziwan", "area_km2": 40.17907377681157, "pop_2015": 280 }, "geometry": { "type": "Point", "coordinates": [ 35.812706696107369, 33.055250317088515 ] } },
{ "type": "Feature", "properties": { "town": "622", "name_heb": "עין צורים", "name_eng": "En Zurim", "area_km2": 3.3436711068896652, "pop_2015": 746 }, "geometry": { "type": "Point", "coordinates": [ 34.72280811909252, 31.689217935859073 ] } },
{ "type": "Feature", "properties": { "town": "871", "name_heb": "עינת", "name_eng": "Enat", "area_km2": 0.36074816328504677, "pop_2015": 786 }, "geometry": { "type": "Point", "coordinates": [ 34.939235871927217, 32.082916561535129 ] } },
{ "type": "Feature", "properties": { "town": "3712", "name_heb": "ענב", "name_eng": "Enav", "area_km2": 0.11425134317481517, "pop_2015": 711 }, "geometry": { "type": "Point", "coordinates": [ 35.12915411346129, 32.290346869033215 ] } },
{ "type": "Feature", "properties": { "town": "714", "name_heb": "ארז", "name_eng": "Erez", "area_km2": 10.417572720121946, "pop_2015": 487 }, "geometry": { "type": "Point", "coordinates": [ 34.570131612354722, 31.558306855558612 ] } },
{ "type": "Feature", "properties": { "town": "1276", "name_heb": "אשבל", "name_eng": "Eshbal", "area_km2": 0.066727276280343528, "pop_2015": 105 }, "geometry": { "type": "Point", "coordinates": [ 35.304896431419074, 32.876062433957991 ] } },
{ "type": "Feature", "properties": { "town": "71", "name_heb": "אשבול", "name_eng": "Eshbol", "area_km2": 6.8017765609745382, "pop_2015": 490 }, "geometry": { "type": "Point", "coordinates": [ 34.66486843089902, 31.45147497568113 ] } },
{ "type": "Feature", "properties": { "town": "2021", "name_heb": "אשל הנשיא", "name_eng": "Eshel Hanasi", "area_km2": 0.41524355036211014, "pop_2015": 244 }, "geometry": { "type": "Point", "coordinates": [ 34.697098450351248, 31.32530441571225 ] } },
{ "type": "Feature", "properties": { "town": "1188", "name_heb": "אשחר", "name_eng": "Eshhar", "area_km2": 6.1559698591828793, "pop_2015": 790 }, "geometry": { "type": "Point", "coordinates": [ 35.295033131066724, 32.883165786645456 ] } },
{ "type": "Feature", "properties": { "town": "3722", "name_heb": "אשכולות", "name_eng": "Eshkolot", "area_km2": 0.22757902737748623, "pop_2015": 494 }, "geometry": { "type": "Point", "coordinates": [ 34.902666594853883, 31.389639404310003 ] } },
{ "type": "Feature", "properties": { "town": "740", "name_heb": "אשתאול", "name_eng": "Eshta'ol", "area_km2": 0.13393873988877236, "pop_2015": 1200 }, "geometry": { "type": "Point", "coordinates": [ 35.01087856539889, 31.781787367625746 ] } },
{ "type": "Feature", "properties": { "town": "37", "name_heb": "איתן", "name_eng": "Etan", "area_km2": 3.4894183464202655, "pop_2015": 433 }, "geometry": { "type": "Point", "coordinates": [ 34.749165355527502, 31.569860254625649 ] } },
{ "type": "Feature", "properties": { "town": "886", "name_heb": "איתנים", "name_eng": "Etanim", "area_km2": 0.055419862160295243, "pop_2015": 92 }, "geometry": { "type": "Point", "coordinates": [ 35.095600346436825, 31.778701347293559 ] } },
{ "type": "Feature", "properties": { "town": "1081", "name_heb": "אבן מנחם", "name_eng": "Even Menahem", "area_km2": 8.0098877711951655, "pop_2015": 264 }, "geometry": { "type": "Point", "coordinates": [ 35.284142133533763, 33.067008923897305 ] } },
{ "type": "Feature", "properties": { "town": "783", "name_heb": "אבן ספיר", "name_eng": "Even Sappir", "area_km2": 0.1520305016819313, "pop_2015": 740 }, "geometry": { "type": "Point", "coordinates": [ 35.134400377731758, 31.762759633033706 ] } },
{ "type": "Feature", "properties": { "town": "400", "name_heb": "אבן שמואל", "name_eng": "Even Shemu'el", "area_km2": 0.54510418193477395, "pop_2015": 1535 }, "geometry": { "type": "Point", "coordinates": [ 34.762701455745905, 31.575507245018699 ] } },
{ "type": "Feature", "properties": { "town": "182", "name_heb": "אבן יהודה", "name_eng": "Even Yehuda", "area_km2": 8.3891347740591016, "pop_2015": 13221 }, "geometry": { "type": "Point", "coordinates": [ 34.883603882796088, 32.267767300686998 ] } },
{ "type": "Feature", "properties": { "town": "376", "name_heb": "עברון", "name_eng": "Evron", "area_km2": 4.149941793238848, "pop_2015": 758 }, "geometry": { "type": "Point", "coordinates": [ 35.113199146271057, 32.991542122176909 ] } },
{ "type": "Feature", "properties": { "town": "716", "name_heb": "אייל", "name_eng": "Eyal", "area_km2": 4.7799846286700518, "pop_2015": 482 }, "geometry": { "type": "Point", "coordinates": [ 34.97193067728395, 32.208842406528433 ] } },
{ "type": "Feature", "properties": { "town": "3778", "name_heb": "עץ אפרים", "name_eng": "Ez Efrayim", "area_km2": 0.038872285728871823, "pop_2015": 1822 }, "geometry": { "type": "Point", "coordinates": [ 35.049222260947836, 32.121781950705042 ] } },
{ "type": "Feature", "properties": { "town": "1149", "name_heb": "עזר", "name_eng": "Ezer", "area_km2": 0.11506699808764458, "pop_2015": 837 }, "geometry": { "type": "Point", "coordinates": [ 34.670306733871328, 31.737027478986615 ] } },
{ "type": "Feature", "properties": { "town": "328", "name_heb": "עזוז", "name_eng": "Ezuz", "area_km2": 6.6912449993932395, "pop_2015": 73 }, "geometry": { "type": "Point", "coordinates": [ 34.479023124543126, 30.787873377244402 ] } },
{ "type": "Feature", "properties": { "town": "535", "name_heb": "פסוטה", "name_eng": "Fassuta", "area_km2": 11.147659041283886, "pop_2015": 3026 }, "geometry": { "type": "Point", "coordinates": [ 35.307179624902922, 33.052013516961615 ] } },
{ "type": "Feature", "properties": { "town": "537", "name_heb": "פוריידיס", "name_eng": "Fureidis", "area_km2": 2.5823812835883198, "pop_2015": 12389 }, "geometry": { "type": "Point", "coordinates": [ 34.947552179988321, 32.597937839824851 ] } },
{ "type": "Feature", "properties": { "town": "842", "name_heb": "געש", "name_eng": "Ga'ash", "area_km2": 4.5392886961344177, "pop_2015": 682 }, "geometry": { "type": "Point", "coordinates": [ 34.836623535141435, 32.233723543392756 ] } },
{ "type": "Feature", "properties": { "town": "463", "name_heb": "געתון", "name_eng": "Ga'ton", "area_km2": 4.1975318814569116, "pop_2015": 568 }, "geometry": { "type": "Point", "coordinates": [ 35.190532451030123, 33.008150308678943 ] } },
{ "type": "Feature", "properties": { "town": "145", "name_heb": "גדיש", "name_eng": "Gadish", "area_km2": 3.6215873079913332, "pop_2015": 399 }, "geometry": { "type": "Point", "coordinates": [ 35.248721417669053, 32.552571733865243 ] } },
{ "type": "Feature", "properties": { "town": "35", "name_heb": "גדות", "name_eng": "Gadot", "area_km2": 5.5980707929107671, "pop_2015": 406 }, "geometry": { "type": "Point", "coordinates": [ 35.619995196301005, 33.022979552152584 ] } },
{ "type": "Feature", "properties": { "town": "369", "name_heb": "גלעד (אבן יצחק)", "name_eng": "Gal'ed (even Yizhaq)", "area_km2": 13.605717318925983, "pop_2015": 463 }, "geometry": { "type": "Point", "coordinates": [ 35.081455020715147, 32.56200341924977 ] } },
{ "type": "Feature", "properties": { "town": "393", "name_heb": "גלאון", "name_eng": "Gal'on", "area_km2": 22.055757368708246, "pop_2015": 378 }, "geometry": { "type": "Point", "coordinates": [ 34.837347003216721, 31.634333414473897 ] } },
{ "type": "Feature", "properties": { "town": "1072", "name_heb": "גן הדרום", "name_eng": "Gan Hadarom", "area_km2": 2.273541745356932, "pop_2015": 563 }, "geometry": { "type": "Point", "coordinates": [ 34.701026107538596, 31.80671985243464 ] } },
{ "type": "Feature", "properties": { "town": "225", "name_heb": "גן השומרון", "name_eng": "Gan Hashomeron", "area_km2": 3.0423117592074322, "pop_2015": 803 }, "geometry": { "type": "Point", "coordinates": [ 35.001008086552453, 32.459165212288305 ] } },
{ "type": "Feature", "properties": { "town": "239", "name_heb": "גן חיים", "name_eng": "Gan Hayyim", "area_km2": 0.71565872398514208, "pop_2015": 816 }, "geometry": { "type": "Point", "coordinates": [ 34.905475063338081, 32.194911967872997 ] } },
{ "type": "Feature", "properties": { "town": "1274", "name_heb": "גן נר", "name_eng": "Gan Ner", "area_km2": 1.6295419303559064, "pop_2015": 2643 }, "geometry": { "type": "Point", "coordinates": [ 35.337358456686268, 32.527926945323244 ] } },
{ "type": "Feature", "properties": { "town": "144", "name_heb": "גן שלמה", "name_eng": "Gan Shelomo", "area_km2": 4.079858724890947, "pop_2015": 518 }, "geometry": { "type": "Point", "coordinates": [ 34.785055617999397, 31.873929582971854 ] } },
{ "type": "Feature", "properties": { "town": "72", "name_heb": "גן שמואל", "name_eng": "Gan Shemu'el", "area_km2": 22.869473257133702, "pop_2015": 870 }, "geometry": { "type": "Point", "coordinates": [ 34.933877919183708, 32.474103388770438 ] } },
{ "type": "Feature", "properties": { "town": "311", "name_heb": "גן שורק", "name_eng": "Gan Soreq", "area_km2": 4.0258051001151802, "pop_2015": 677 }, "geometry": { "type": "Point", "coordinates": [ 34.748469713079778, 31.941032435333387 ] } },
{ "type": "Feature", "properties": { "town": "166", "name_heb": "גן יבנה", "name_eng": "Gan Yavne", "area_km2": 11.190492526440977, "pop_2015": 22453 }, "geometry": { "type": "Point", "coordinates": [ 34.703130581456385, 31.788232692245948 ] } },
{ "type": "Feature", "properties": { "town": "734", "name_heb": "גן יאשיה", "name_eng": "Gan Yoshiyya", "area_km2": 2.9220995882622001, "pop_2015": 976 }, "geometry": { "type": "Point", "coordinates": [ 34.997972923344136, 32.347309072146665 ] } },
{ "type": "Feature", "properties": { "town": "218", "name_heb": "גני עם", "name_eng": "Ganne Am", "area_km2": 0.11582510718667506, "pop_2015": 240 }, "geometry": { "type": "Point", "coordinates": [ 34.902591892077936, 32.150771160483217 ] } },
{ "type": "Feature", "properties": { "town": "1103", "name_heb": "גני הדר", "name_eng": "Ganne Hadar", "area_km2": 0.036096159447342159, "pop_2015": 278 }, "geometry": { "type": "Point", "coordinates": [ 34.847160492786614, 31.872122266938771 ] } },
{ "type": "Feature", "properties": { "town": "229", "name_heb": "גני תקווה", "name_eng": "Ganne Tiqwa", "area_km2": 2.0771300774759349, "pop_2015": 16053 }, "geometry": { "type": "Point", "coordinates": [ 34.874290428577204, 32.062186345472391 ] } },
{ "type": "Feature", "properties": { "town": "862", "name_heb": "גני יוחנן", "name_eng": "Ganne Yohanan", "area_km2": 2.3059332014173268, "pop_2015": 618 }, "geometry": { "type": "Point", "coordinates": [ 34.834996377003314, 31.85564703686855 ] } },
{ "type": "Feature", "properties": { "town": "836", "name_heb": "גנות", "name_eng": "Gannot", "area_km2": 0.756305050978899, "pop_2015": 623 }, "geometry": { "type": "Point", "coordinates": [ 34.828333870692163, 32.017708691162682 ] } },
{ "type": "Feature", "properties": { "town": "549", "name_heb": "גנות הדר", "name_eng": "Gannot Hadar", "area_km2": 0.69369337505759299, "pop_2015": 909 }, "geometry": { "type": "Point", "coordinates": [ 34.901481028373006, 32.319516458592737 ] } },
{ "type": "Feature", "properties": { "town": "128", "name_heb": "גת רימון", "name_eng": "Gat Rimmon", "area_km2": 0.71025978760942809, "pop_2015": 300 }, "geometry": { "type": "Point", "coordinates": [ 34.883528639806478, 32.068714473566928 ] } },
{ "type": "Feature", "properties": { "town": "340", "name_heb": "גת (קיבוץ)", "name_eng": "Gat(qibbuz)", "area_km2": 8.1649437668995475, "pop_2015": 704 }, "geometry": { "type": "Point", "coordinates": [ 34.791029760485479, 31.629336081545791 ] } },
{ "type": "Feature", "properties": { "town": "457", "name_heb": "גזית", "name_eng": "Gazit", "area_km2": 9.9204140792856172, "pop_2015": 655 }, "geometry": { "type": "Point", "coordinates": [ 35.456184069779795, 32.636797587996554 ] } },
{ "type": "Feature", "properties": { "town": "706", "name_heb": "גיאה", "name_eng": "Ge'a", "area_km2": 3.833894133759737, "pop_2015": 929 }, "geometry": { "type": "Point", "coordinates": [ 34.604447759097965, 31.62886587229568 ] } },
{ "type": "Feature", "properties": { "town": "853", "name_heb": "גאליה", "name_eng": "Ge'alya", "area_km2": 4.0673144948838349, "pop_2015": 992 }, "geometry": { "type": "Point", "coordinates": [ 34.763170613407276, 31.884080744018132 ] } },
{ "type": "Feature", "properties": { "town": "872", "name_heb": "גאולי תימן", "name_eng": "Ge'ule Teman", "area_km2": 0.43861662750529123, "pop_2015": 369 }, "geometry": { "type": "Point", "coordinates": [ 34.901454887490203, 32.391916835557524 ] } },
{ "type": "Feature", "properties": { "town": "379", "name_heb": "גאולים", "name_eng": "Ge'ulim", "area_km2": 2.6715886882014086, "pop_2015": 896 }, "geometry": { "type": "Point", "coordinates": [ 34.946698436882379, 32.29875127068992 ] } },
{ "type": "Feature", "properties": { "town": "2550", "name_heb": "גדרה", "name_eng": "Gedera", "area_km2": 11.561558474692404, "pop_2015": 26217 }, "geometry": { "type": "Point", "coordinates": [ 34.777391963147629, 31.815111835578954 ] } },
{ "type": "Feature", "properties": { "town": "39", "name_heb": "גפן", "name_eng": "Gefen", "area_km2": 0.24075399620655177, "pop_2015": 384 }, "geometry": { "type": "Point", "coordinates": [ 34.877922799571891, 31.739270318223632 ] } },
{ "type": "Feature", "properties": { "town": "346", "name_heb": "גליל ים", "name_eng": "Gelil Yam", "area_km2": 2.0869851790318488, "pop_2015": 470 }, "geometry": { "type": "Point", "coordinates": [ 34.822654553591221, 32.151665144338104 ] } },
{ "type": "Feature", "properties": { "town": "1129", "name_heb": "גרופית", "name_eng": "Gerofit", "area_km2": 3.3894165327921022, "pop_2015": 262 }, "geometry": { "type": "Point", "coordinates": [ 35.072882855997712, 29.941636292885704 ] } },
{ "type": "Feature", "properties": { "town": "305", "name_heb": "גשר", "name_eng": "Gesher", "area_km2": 9.4782486673412549, "pop_2015": 425 }, "geometry": { "type": "Point", "coordinates": [ 35.557558977408405, 32.611399751138762 ] } },
{ "type": "Feature", "properties": { "town": "574", "name_heb": "גשר הזיו", "name_eng": "Gesher Haziw", "area_km2": 3.9950327635419067, "pop_2015": 1605 }, "geometry": { "type": "Point", "coordinates": [ 35.11414727708982, 33.042574165686318 ] } },
{ "type": "Feature", "properties": { "town": "4022", "name_heb": "גשור", "name_eng": "Geshur", "area_km2": 21.798048839646949, "pop_2015": 264 }, "geometry": { "type": "Point", "coordinates": [ 35.723331059830379, 32.820655039819826 ] } },
{ "type": "Feature", "properties": { "town": "86", "name_heb": "גבע", "name_eng": "Geva", "area_km2": 9.2522070845310989, "pop_2015": 625 }, "geometry": { "type": "Point", "coordinates": [ 35.361468199776965, 32.573793017675044 ] } },
{ "type": "Feature", "properties": { "town": "683", "name_heb": "גבע כרמל", "name_eng": "Geva  Karmel", "area_km2": 6.259045076497264, "pop_2015": 1166 }, "geometry": { "type": "Point", "coordinates": [ 34.96042209086756, 32.661523803961046 ] } },
{ "type": "Feature", "properties": { "town": "3763", "name_heb": "גבע בנימין", "name_eng": "Geva Binyamin", "area_km2": 0.10056155504703521, "pop_2015": 5232 }, "geometry": { "type": "Point", "coordinates": [ 35.267587178484455, 31.852041964559955 ] } },
{ "type": "Feature", "properties": { "town": "1344", "name_heb": "גבעות בר", "name_eng": "Geva'ot Bar", "area_km2": 0.06959325432264804, "pop_2015": 815 }, "geometry": { "type": "Point", "coordinates": [ 34.754580721275673, 31.357635469197209 ] } },
{ "type": "Feature", "properties": { "town": "342", "name_heb": "גברעם", "name_eng": "Gevar'am", "area_km2": 8.1534819961240288, "pop_2015": 372 }, "geometry": { "type": "Point", "coordinates": [ 34.607101391699828, 31.599826555643766 ] } },
{ "type": "Feature", "properties": { "town": "133", "name_heb": "גבת", "name_eng": "Gevat", "area_km2": 2.5883847339605093, "pop_2015": 860 }, "geometry": { "type": "Point", "coordinates": [ 35.209671025955195, 32.671621653441051 ] } },
{ "type": "Feature", "properties": { "town": "424", "name_heb": "גבים", "name_eng": "Gevim", "area_km2": 6.888528407612025, "pop_2015": 520 }, "geometry": { "type": "Point", "coordinates": [ 34.604826123590996, 31.499070283094831 ] } },
{ "type": "Feature", "properties": { "town": "352", "name_heb": "גבולות", "name_eng": "Gevulot", "area_km2": 4.0794290525869128, "pop_2015": 299 }, "geometry": { "type": "Point", "coordinates": [ 34.467654240736387, 31.216035190894495 ] } },
{ "type": "Feature", "properties": { "town": "370", "name_heb": "גזר", "name_eng": "Gezer", "area_km2": 5.7384183093417525, "pop_2015": 273 }, "geometry": { "type": "Point", "coordinates": [ 34.922858984825588, 31.873163260544686 ] } },
{ "type": "Feature", "properties": { "town": "4501", "name_heb": "ע'ג'ר", "name_eng": "Ghajar", "area_km2": 2.3998726883006096, "pop_2015": 2484 }, "geometry": { "type": "Point", "coordinates": [ 35.631665322544308, 33.269877943237141 ] } },
{ "type": "Feature", "properties": { "town": "196", "name_heb": "גיבתון", "name_eng": "Gibbeton", "area_km2": 0.39895222781805695, "pop_2015": 327 }, "geometry": { "type": "Point", "coordinates": [ 34.799051406102031, 31.887466812201243 ] } },
{ "type": "Feature", "properties": { "town": "442", "name_heb": "גדעונה", "name_eng": "Gid'ona", "area_km2": 0.047944802964717148, "pop_2015": 411 }, "geometry": { "type": "Point", "coordinates": [ 35.359560931550135, 32.54872953770446 ] } },
{ "type": "Feature", "properties": { "town": "736", "name_heb": "גילת", "name_eng": "Gilat", "area_km2": 4.2269903434454799, "pop_2015": 1323 }, "geometry": { "type": "Point", "coordinates": [ 34.649925157348974, 31.325975926438336 ] } },
{ "type": "Feature", "properties": { "town": "3606", "name_heb": "גלגל", "name_eng": "Gilgal", "area_km2": 0.25942851909399034, "pop_2015": 171 }, "geometry": { "type": "Point", "coordinates": [ 35.445305855603806, 32.000929785340013 ] } },
{ "type": "Feature", "properties": { "town": "1204", "name_heb": "גילון", "name_eng": "Gilon", "area_km2": 2.3723094126870405, "pop_2015": 1082 }, "geometry": { "type": "Point", "coordinates": [ 35.233027277250201, 32.901336881979034 ] } },
{ "type": "Feature", "properties": { "town": "745", "name_heb": "גמזו", "name_eng": "Gimzo", "area_km2": 8.5712413212306195, "pop_2015": 1165 }, "geometry": { "type": "Point", "coordinates": [ 34.942073755306225, 31.925053445680767 ] } },
{ "type": "Feature", "properties": { "town": "863", "name_heb": "גינתון", "name_eng": "Ginnaton", "area_km2": 1.2236224465493262, "pop_2015": 884 }, "geometry": { "type": "Point", "coordinates": [ 34.913991999262578, 31.963103094888289 ] } },
{ "type": "Feature", "properties": { "town": "92", "name_heb": "גיניגר", "name_eng": "Ginnegar", "area_km2": 5.6356337333834468, "pop_2015": 655 }, "geometry": { "type": "Point", "coordinates": [ 35.255510705558265, 32.659647960190625 ] } },
{ "type": "Feature", "properties": { "town": "262", "name_heb": "גינוסר", "name_eng": "Ginnosar", "area_km2": 10.997774291503303, "pop_2015": 568 }, "geometry": { "type": "Point", "coordinates": [ 35.514152457063943, 32.864495443971748 ] } },
{ "type": "Feature", "properties": { "town": "1206", "name_heb": "גיתה", "name_eng": "Gitta", "area_km2": 0.31599862159154934, "pop_2015": 266 }, "geometry": { "type": "Point", "coordinates": [ 35.249681478541554, 32.967089634488786 ] } },
{ "type": "Feature", "properties": { "town": "3613", "name_heb": "גיתית", "name_eng": "Gittit", "area_km2": 0.14423733731538058, "pop_2015": 376 }, "geometry": { "type": "Point", "coordinates": [ 35.394595428946246, 32.099504196666032 ] } },
{ "type": "Feature", "properties": { "town": "1293", "name_heb": "גבעת אבני", "name_eng": "Giv'at Avni", "area_km2": 0.56328010773891468, "pop_2015": 2082 }, "geometry": { "type": "Point", "coordinates": [ 35.438229452020707, 32.775025799911852 ] } },
{ "type": "Feature", "properties": { "town": "147", "name_heb": "גבעת ברנר", "name_eng": "Giv'at Brenner", "area_km2": 12.378917513531579, "pop_2015": 2617 }, "geometry": { "type": "Point", "coordinates": [ 34.784046660420962, 31.855750878495822 ] } },
{ "type": "Feature", "properties": { "town": "1288", "name_heb": "גבעת אלה", "name_eng": "Giv'at Ela", "area_km2": 1.0753496532983482, "pop_2015": 1911 }, "geometry": { "type": "Point", "coordinates": [ 35.246261418424446, 32.720351164490125 ] } },
{ "type": "Feature", "properties": { "town": "870", "name_heb": "גבעת השלושה", "name_eng": "Giv'at Hashelosha", "area_km2": 0.43764548008587956, "pop_2015": 783 }, "geometry": { "type": "Point", "coordinates": [ 34.921016135419265, 32.097688184117821 ] } },
{ "type": "Feature", "properties": { "town": "2018", "name_heb": "גבעת חיים (איחוד)", "name_eng": "Giv'at Hayyim (ihud)", "area_km2": 4.184539732767691, "pop_2015": 1067 }, "geometry": { "type": "Point", "coordinates": [ 34.949364829668852, 32.376667132842002 ] } },
{ "type": "Feature", "properties": { "town": "173", "name_heb": "גבעת חיים (מאוחד)", "name_eng": "Giv'at Hayyim(me'uhad)", "area_km2": 4.228858569971651, "pop_2015": 984 }, "geometry": { "type": "Point", "coordinates": [ 34.950095181006532, 32.380788078644215 ] } },
{ "type": "Feature", "properties": { "town": "207", "name_heb": "גבעת חן", "name_eng": "Giv'at Hen", "area_km2": 1.4758685952487289, "pop_2015": 362 }, "geometry": { "type": "Point", "coordinates": [ 34.872322650117283, 32.167742342145125 ] } },
{ "type": "Feature", "properties": { "town": "802", "name_heb": "גבעת כח", "name_eng": "Giv'at Koah", "area_km2": 3.2031771425342854, "pop_2015": 859 }, "geometry": { "type": "Point", "coordinates": [ 34.937590598855756, 32.034265943906092 ] } },
{ "type": "Feature", "properties": { "town": "360", "name_heb": "גבעת נילי", "name_eng": "Giv'at Nili", "area_km2": 3.5421327822846469, "pop_2015": 733 }, "geometry": { "type": "Point", "coordinates": [ 35.043025521239436, 32.550394048454876 ] } },
{ "type": "Feature", "properties": { "town": "703", "name_heb": "גבעת עוז", "name_eng": "Giv'at Oz", "area_km2": 5.8794269804338812, "pop_2015": 469 }, "geometry": { "type": "Point", "coordinates": [ 35.202604852756146, 32.564319393004723 ] } },
{ "type": "Feature", "properties": { "town": "1077", "name_heb": "גבעת שפירא", "name_eng": "Giv'at Shappira", "area_km2": 0.91950906113612652, "pop_2015": 434 }, "geometry": { "type": "Point", "coordinates": [ 34.878793385672388, 32.36387835304042 ] } },
{ "type": "Feature", "properties": { "town": "566", "name_heb": "גבעת שמש", "name_eng": "Giv'at Shemesh", "area_km2": 0.3122755499341488, "pop_2015": 74 }, "geometry": { "type": "Point", "coordinates": [ 34.951625702132809, 31.774304111344275 ] } },
{ "type": "Feature", "properties": { "town": "681", "name_heb": "גבעת שמואל", "name_eng": "Giv'at Shemu'el", "area_km2": 2.5934063393099196, "pop_2015": 25298 }, "geometry": { "type": "Point", "coordinates": [ 34.851925376321617, 32.076777744422984 ] } },
{ "type": "Feature", "properties": { "town": "787", "name_heb": "גבעת יערים", "name_eng": "Giv'at Ye'arim", "area_km2": 0.27337989926585554, "pop_2015": 1386 }, "geometry": { "type": "Point", "coordinates": [ 35.087825737236919, 31.787407678728851 ] } },
{ "type": "Feature", "properties": { "town": "919", "name_heb": "גבעת ישעיהו", "name_eng": "Giv'at Yesha'yahu", "area_km2": 0.11456997846028301, "pop_2015": 796 }, "geometry": { "type": "Point", "coordinates": [ 34.945114427677382, 31.671662392003036 ] } },
{ "type": "Feature", "properties": { "town": "4021", "name_heb": "גבעת יואב", "name_eng": "Giv'at Yo'av", "area_km2": 10.414159516940449, "pop_2015": 662 }, "geometry": { "type": "Point", "coordinates": [ 35.666414569185307, 32.812516741299284 ] } },
{ "type": "Feature", "properties": { "town": "3730", "name_heb": "גבעת זאב", "name_eng": "Giv'at Ze'ev", "area_km2": 4.1073071745824548, "pop_2015": 16123 }, "geometry": { "type": "Point", "coordinates": [ 35.167283373017838, 31.856752940909796 ] } },
{ "type": "Feature", "properties": { "town": "6300", "name_heb": "גבעתיים", "name_eng": "Giv'atayim", "area_km2": 3.0448166323744092, "pop_2015": 57508 }, "geometry": { "type": "Point", "coordinates": [ 34.810604455079002, 32.070269412776767 ] } },
{ "type": "Feature", "properties": { "town": "793", "name_heb": "גבעתי", "name_eng": "Giv'ati", "area_km2": 3.7556794445391, "pop_2015": 955 }, "geometry": { "type": "Point", "coordinates": [ 34.675544942494746, 31.730814433802074 ] } },
{ "type": "Feature", "properties": { "town": "2014", "name_heb": "גבעולים", "name_eng": "Giv'olim", "area_km2": 3.5031309475362002, "pop_2015": 326 }, "geometry": { "type": "Point", "coordinates": [ 34.584362904446294, 31.400168888261749 ] } },
{ "type": "Feature", "properties": { "town": "3644", "name_heb": "גבעון החדשה", "name_eng": "Giv'on Hahadasha", "area_km2": 0.044225686234474183, "pop_2015": 1151 }, "geometry": { "type": "Point", "coordinates": [ 35.164464438721112, 31.85020390608442 ] } },
{ "type": "Feature", "properties": { "town": "1043", "name_heb": "גיזו", "name_eng": "Gizo", "area_km2": 0.2550626898908615, "pop_2015": 188 }, "geometry": { "type": "Point", "coordinates": [ 34.938103906718929, 31.803189956908138 ] } },
{ "type": "Feature", "properties": { "town": "852", "name_heb": "גונן", "name_eng": "Gonen", "area_km2": 7.065416397731334, "pop_2015": 329 }, "geometry": { "type": "Point", "coordinates": [ 35.635857803013565, 33.127178511117222 ] } },
{ "type": "Feature", "properties": { "town": "755", "name_heb": "גורן", "name_eng": "Goren", "area_km2": 9.8516079116367106, "pop_2015": 441 }, "geometry": { "type": "Point", "coordinates": [ 35.239077994261152, 33.054449502624522 ] } },
{ "type": "Feature", "properties": { "town": "1219", "name_heb": "גורנות הגליל", "name_eng": "Gornot Hagalil", "area_km2": 0.56884630726303154, "pop_2015": 168 }, "geometry": { "type": "Point", "coordinates": [ 35.250982973963374, 33.059213567699551 ] } },
{ "type": "Feature", "properties": { "town": "675", "name_heb": "הבונים", "name_eng": "Habonim", "area_km2": 5.3474143808262644, "pop_2015": 345 }, "geometry": { "type": "Point", "coordinates": [ 34.942118121027612, 32.634805745347244 ] } },
{ "type": "Feature", "properties": { "town": "4026", "name_heb": "חד-נס", "name_eng": "Had-nes", "area_km2": 0.34642759208261964, "pop_2015": 827 }, "geometry": { "type": "Point", "coordinates": [ 35.643882631656176, 32.936186810354975 ] } },
{ "type": "Feature", "properties": { "town": "191", "name_heb": "הדר עם", "name_eng": "Hadar Am", "area_km2": 2.280713830990508, "pop_2015": 599 }, "geometry": { "type": "Point", "coordinates": [ 34.919132633752952, 32.350473303071801 ] } },
{ "type": "Feature", "properties": { "town": "6500", "name_heb": "חדרה", "name_eng": "Hadera", "area_km2": 51.330931156844031, "pop_2015": 88783 }, "geometry": { "type": "Point", "coordinates": [ 34.916614003860069, 32.43527925366552 ] } },
{ "type": "Feature", "properties": { "town": "618", "name_heb": "חדיד", "name_eng": "Hadid", "area_km2": 3.2687899888090488, "pop_2015": 866 }, "geometry": { "type": "Point", "coordinates": [ 34.931495882479297, 31.970970523479362 ] } },
{ "type": "Feature", "properties": { "town": "363", "name_heb": "חפץ חיים", "name_eng": "Hafez Hayyim", "area_km2": 7.851073639616966, "pop_2015": 503 }, "geometry": { "type": "Point", "coordinates": [ 34.7975753285236, 31.789877399289498 ] } },
{ "type": "Feature", "properties": { "town": "3764", "name_heb": "חגי", "name_eng": "Haggay", "area_km2": 0.20775970902514457, "pop_2015": 592 }, "geometry": { "type": "Point", "coordinates": [ 35.082210255266936, 31.496664580296198 ] } },
{ "type": "Feature", "properties": { "town": "717", "name_heb": "חגור", "name_eng": "Hagor", "area_km2": 1.3872088599846362, "pop_2015": 1135 }, "geometry": { "type": "Point", "coordinates": [ 34.945992572422945, 32.137738298886347 ] } },
{ "type": "Feature", "properties": { "town": "356", "name_heb": "הגושרים", "name_eng": "Hagosherim", "area_km2": 5.8569001985466995, "pop_2015": 720 }, "geometry": { "type": "Point", "coordinates": [ 35.615720211990251, 33.211288945221476 ] } },
{ "type": "Feature", "properties": { "town": "434", "name_heb": "החותרים", "name_eng": "Hahoterim", "area_km2": 4.1555910808405203, "pop_2015": 730 }, "geometry": { "type": "Point", "coordinates": [ 34.958250569736819, 32.749166715215864 ] } },
{ "type": "Feature", "properties": { "town": "4000", "name_heb": "חיפה", "name_eng": "Haifa", "area_km2": 69.190371523169063, "pop_2015": 278903 }, "geometry": { "type": "Point", "coordinates": [ 35.008877975060692, 32.801575234944877 ] } },
{ "type": "Feature", "properties": { "town": "3573", "name_heb": "חלמיש", "name_eng": "Hallamish", "area_km2": 0.0011367736474070698, "pop_2015": 1278 }, "geometry": { "type": "Point", "coordinates": [ 35.125596224843846, 32.006118170398807 ] } },
{ "type": "Feature", "properties": { "town": "1272", "name_heb": "חלוץ", "name_eng": "Haluz", "area_km2": 1.1701435597821548, "pop_2015": 464 }, "geometry": { "type": "Point", "coordinates": [ 35.311253462813674, 32.94945631796223 ] } },
{ "type": "Feature", "properties": { "town": "377", "name_heb": "המעפיל", "name_eng": "Hama'pil", "area_km2": 3.5482877206218242, "pop_2015": 807 }, "geometry": { "type": "Point", "coordinates": [ 34.980543401406145, 32.373666151948548 ] } },
{ "type": "Feature", "properties": { "town": "343", "name_heb": "חמדיה", "name_eng": "Hamadya", "area_km2": 17.395176457828214, "pop_2015": 396 }, "geometry": { "type": "Point", "coordinates": [ 35.530429992652124, 32.523545842968467 ] } },
{ "type": "Feature", "properties": { "town": "993", "name_heb": "חמאם", "name_eng": "Hamam", "area_km2": 0.27131343397617341, "pop_2015": 1410 }, "geometry": { "type": "Point", "coordinates": [ 35.489390322227216, 32.830387707721187 ] } },
{ "type": "Feature", "properties": { "town": "3609", "name_heb": "חמרה", "name_eng": "Hamra", "area_km2": 0.15210799166178704, "pop_2015": 127 }, "geometry": { "type": "Point", "coordinates": [ 35.437047393732158, 32.199731257623483 ] } },
{ "type": "Feature", "properties": { "town": "280", "name_heb": "חניתה", "name_eng": "Hanita", "area_km2": 8.7942534984155749, "pop_2015": 724 }, "geometry": { "type": "Point", "coordinates": [ 35.160842778121214, 33.079775555098166 ] } },
{ "type": "Feature", "properties": { "town": "1257", "name_heb": "חנתון", "name_eng": "Hannaton", "area_km2": 0.52209040274697538, "pop_2015": 794 }, "geometry": { "type": "Point", "coordinates": [ 35.242680528896763, 32.784657546421343 ] } },
{ "type": "Feature", "properties": { "town": "807", "name_heb": "חניאל", "name_eng": "Hanni'el", "area_km2": 2.9898523371508121, "pop_2015": 931 }, "geometry": { "type": "Point", "coordinates": [ 34.94844478361636, 32.329894303908709 ] } },
{ "type": "Feature", "properties": { "town": "423", "name_heb": "העוגן", "name_eng": "Haogen", "area_km2": 2.7009294605436174, "pop_2015": 855 }, "geometry": { "type": "Point", "coordinates": [ 34.941086598228217, 32.358478735054639 ] } },
{ "type": "Feature", "properties": { "town": "702", "name_heb": "האון", "name_eng": "Haon", "area_km2": 8.3985374615572201, "pop_2015": 184 }, "geometry": { "type": "Point", "coordinates": [ 35.635879212105735, 32.723756905620128 ] } },
{ "type": "Feature", "properties": { "town": "3769", "name_heb": "הר אדר", "name_eng": "Har Adar", "area_km2": 1.125465858693838, "pop_2015": 3858 }, "geometry": { "type": "Point", "coordinates": [ 35.129349668025959, 31.826766400854662 ] } },
{ "type": "Feature", "properties": { "town": "1261", "name_heb": "הר עמשא", "name_eng": "Har Amasa", "area_km2": 0.42675229961776734, "pop_2015": 113 }, "geometry": { "type": "Point", "coordinates": [ 35.100966806989518, 31.343089266459849 ] } },
{ "type": "Feature", "properties": { "town": "3603", "name_heb": "הר גילה", "name_eng": "Har Gillo", "area_km2": 0.26196647966039177, "pop_2015": 1505 }, "geometry": { "type": "Point", "coordinates": [ 35.171969423538322, 31.722404052791571 ] } },
{ "type": "Feature", "properties": { "town": "464", "name_heb": "הראל", "name_eng": "Har'el", "area_km2": 0.38294973891884831, "pop_2015": 247 }, "geometry": { "type": "Point", "coordinates": [ 34.950226749162958, 31.810505526864247 ] } },
{ "type": "Feature", "properties": { "town": "1203", "name_heb": "הררית", "name_eng": "Hararit", "area_km2": 6.6055565816771669, "pop_2015": 412 }, "geometry": { "type": "Point", "coordinates": [ 35.377843890403973, 32.843574738445604 ] } },
{ "type": "Feature", "properties": { "town": "1209", "name_heb": "חרשים", "name_eng": "Harashim", "area_km2": 0.92453393237057324, "pop_2015": 290 }, "geometry": { "type": "Point", "coordinates": [ 35.33173223139854, 32.956528327359777 ] } },
{ "type": "Feature", "properties": { "town": "1249", "name_heb": "הרדוף", "name_eng": "Harduf", "area_km2": 0.38292542172899841, "pop_2015": 1034 }, "geometry": { "type": "Point", "coordinates": [ 35.17535430891003, 32.76274076962725 ] } },
{ "type": "Feature", "properties": { "town": "1024", "name_heb": "חרוצים", "name_eng": "Haruzim", "area_km2": 0.17909787526982929, "pop_2015": 889 }, "geometry": { "type": "Point", "coordinates": [ 34.865062513473276, 32.226932516784707 ] } },
{ "type": "Feature", "properties": { "town": "3770", "name_heb": "חשמונאים", "name_eng": "Hashmona'im", "area_km2": 0.0037036104125957353, "pop_2015": 2762 }, "geometry": { "type": "Point", "coordinates": [ 35.02234856656542, 31.930095585474309 ] } },
{ "type": "Feature", "properties": { "town": "677", "name_heb": "הסוללים", "name_eng": "Hasolelim", "area_km2": 11.757628531550944, "pop_2015": 907 }, "geometry": { "type": "Point", "coordinates": [ 35.237995017992475, 32.759271643854532 ] } },
{ "type": "Feature", "properties": { "town": "4005", "name_heb": "חספין", "name_eng": "Haspin", "area_km2": 6.970557089880228, "pop_2015": 1739 }, "geometry": { "type": "Point", "coordinates": [ 35.802077351496536, 32.83102477712859 ] } },
{ "type": "Feature", "properties": { "town": "235", "name_heb": "חבצלת השרון", "name_eng": "Havazzelet Hasharon", "area_km2": 0.95860737423413989, "pop_2015": 553 }, "geometry": { "type": "Point", "coordinates": [ 34.86186135638966, 32.358526583754156 ] } },
{ "type": "Feature", "properties": { "town": "684", "name_heb": "היוגב", "name_eng": "Hayogev", "area_km2": 15.963830537832349, "pop_2015": 632 }, "geometry": { "type": "Point", "coordinates": [ 35.218260539233974, 32.603022147118864 ] } },